[{
  "_id": {
    "$oid": "634964beff42754b9cb21b4d"
  },
  "original_name": "St Andrews",
  "official_name": "St Andrews",
  "county": "Fife",
  "country": "GB",
  "latitude": 56.3417136,
  "longitude": -2.7942674
},{
  "_id": {
    "$oid": "634d5896c1a50566f8151a2b"
  },
  "original_name": "Cwm, Monmouthshire",
  "official_name": "Monmouth",
  "county": "Monmouthshire",
  "country": "GB",
  "latitude": 51.8116533,
  "longitude": -2.7163045
},{
  "_id": {
    "$oid": "634d5896c1a50566f8151a2c"
  },
  "original_name": "Auchterhouse",
  "official_name": "Auchterhouse",
  "county": "Angus Council",
  "country": "GB",
  "latitude": 56.525875,
  "longitude": -3.091491
},{
  "_id": {
    "$oid": "634d5897c1a50566f8151a2d"
  },
  "original_name": "Inverarity",
  "official_name": "Inverarity",
  "county": "Angus Council",
  "country": "GB",
  "latitude": 56.59036399999999,
  "longitude": -2.8923709
},{
  "_id": {
    "$oid": "634d5897c1a50566f8151a2e"
  },
  "original_name": "Lahore, Pakistan",
  "official_name": "Lahore",
  "county": "Lahore",
  "country": "PK",
  "latitude": 31.5203696,
  "longitude": 74.35874729999999
},{
  "_id": {
    "$oid": "634d5897c1a50566f8151a2f"
  },
  "original_name": "Pittenweem",
  "official_name": "Pittenweem",
  "county": "Fife",
  "country": "GB",
  "latitude": 56.214,
  "longitude": -2.732285
},{
  "_id": {
    "$oid": "634d5897c1a50566f8151a30"
  },
  "original_name": "Greenwich",
  "official_name": "London",
  "county": "Greater London",
  "country": "GB",
  "latitude": 51.4933675,
  "longitude": 0.0098214
},{
  "_id": {
    "$oid": "634d5897c1a50566f8151a31"
  },
  "original_name": "Somerset",
  "official_name": null,
  "county": "Somerset",
  "country": "GB",
  "latitude": 51.105097,
  "longitude": -2.9262307
},{
  "_id": {
    "$oid": "634d5898c1a50566f8151a32"
  },
  "original_name": "Ellon",
  "official_name": "Ellon",
  "county": "Aberdeenshire",
  "country": "GB",
  "latitude": 57.364597,
  "longitude": -2.072972
},{
  "_id": {
    "$oid": "634d5898c1a50566f8151a33"
  },
  "original_name": "Largo",
  "official_name": "Upper Largo",
  "county": "Fife",
  "country": "GB",
  "latitude": 56.22038209999999,
  "longitude": -2.9289339
},{
  "_id": {
    "$oid": "634d5898c1a50566f8151a34"
  },
  "original_name": "Forres",
  "official_name": "Forres",
  "county": "Moray",
  "country": "GB",
  "latitude": 57.60979099999999,
  "longitude": -3.61998
},{
  "_id": {
    "$oid": "634d5898c1a50566f8151a35"
  },
  "original_name": "Errol",
  "official_name": "Errol",
  "county": "Perth and Kinross",
  "country": "GB",
  "latitude": 56.391946,
  "longitude": -3.2127279
},{
  "_id": {
    "$oid": "634d5898c1a50566f8151a36"
  },
  "original_name": "St Andrews University",
  "official_name": "St Andrews",
  "county": "Fife",
  "country": "GB",
  "latitude": 56.3417136,
  "longitude": -2.7942674
},{
  "_id": {
    "$oid": "634d5899c1a50566f8151a37"
  },
  "original_name": "Dundee",
  "official_name": "Dundee",
  "county": "Dundee City Council",
  "country": "GB",
  "latitude": 56.462018,
  "longitude": -2.970721
},{
  "_id": {
    "$oid": "634d5899c1a50566f8151a38"
  },
  "original_name": "Kirklington, Yorkshire",
  "official_name": "Kirklington",
  "county": "North Yorkshire",
  "country": "GB",
  "latitude": 54.2255441,
  "longitude": -1.513095
},{
  "_id": {
    "$oid": "634d5899c1a50566f8151a39"
  },
  "original_name": "Newburgh",
  "official_name": "Newburgh",
  "county": "Fife",
  "country": "GB",
  "latitude": 56.350582,
  "longitude": -3.241471
},{
  "_id": {
    "$oid": "634d5899c1a50566f8151a3a"
  },
  "original_name": "Perth",
  "official_name": "Perth",
  "county": "Perth and Kinross",
  "country": "GB",
  "latitude": 56.394994,
  "longitude": -3.430838
},{
  "_id": {
    "$oid": "634d5899c1a50566f8151a3b"
  },
  "original_name": "Penkhull",
  "official_name": "Stoke-on-Trent",
  "county": "Stoke-on-Trent",
  "country": "GB",
  "latitude": 53.0014778,
  "longitude": -2.196476
},{
  "_id": {
    "$oid": "634d5899c1a50566f8151a3c"
  },
  "original_name": "Idmiston,  Wilts.",
  "official_name": "Idmiston",
  "county": "Wiltshire",
  "country": "GB",
  "latitude": 51.134641,
  "longitude": -1.717764
},{
  "_id": {
    "$oid": "634d589ac1a50566f8151a3d"
  },
  "original_name": "Kelton Church",
  "official_name": "Castle Douglas",
  "county": "Dumfries and Galloway",
  "country": "GB",
  "latitude": 54.9215421,
  "longitude": -3.9375601
},{
  "_id": {
    "$oid": "634d589ac1a50566f8151a3e"
  },
  "original_name": "Market Lavington",
  "official_name": "Market Lavington",
  "county": "Wiltshire",
  "country": "GB",
  "latitude": 51.286842,
  "longitude": -1.977487
},{
  "_id": {
    "$oid": "634d610fc1a50566f8151a40"
  },
  "original_name": "Edinburgh",
  "official_name": "Edinburgh",
  "county": "Edinburgh",
  "country": "GB",
  "latitude": 55.953252,
  "longitude": -3.188267
},{
  "_id": {
    "$oid": "634d610fc1a50566f8151a41"
  },
  "original_name": "Inchture",
  "official_name": "Inchture",
  "county": "Perth and Kinross",
  "country": "GB",
  "latitude": 56.445134,
  "longitude": -3.166953
},{
  "_id": {
    "$oid": "634d610fc1a50566f8151a42"
  },
  "original_name": "Dalserf",
  "official_name": "Dalserf",
  "county": "South Lanarkshire",
  "country": "GB",
  "latitude": 55.7347723,
  "longitude": -3.91276
},{
  "_id": {
    "$oid": "634d6110c1a50566f8151a43"
  },
  "original_name": "Leslie, UK",
  "official_name": "Leslie",
  "county": "Fife",
  "country": "GB",
  "latitude": 56.200481,
  "longitude": -3.214391
},{
  "_id": {
    "$oid": "634d6110c1a50566f8151a44"
  },
  "original_name": "Rockferry, Birkenhead",
  "official_name": "Birkenhead",
  "county": "Merseyside",
  "country": "GB",
  "latitude": 53.3657664,
  "longitude": -3.0152812
},{
  "_id": {
    "$oid": "634d6110c1a50566f8151a45"
  },
  "original_name": "Newbattle",
  "official_name": "Newbattle",
  "county": "Midlothian",
  "country": "GB",
  "latitude": 55.8798738,
  "longitude": -3.0742099
},{
  "_id": {
    "$oid": "634d6110c1a50566f8151a46"
  },
  "original_name": "Monifieth",
  "official_name": "Monifieth",
  "county": "Angus Council",
  "country": "GB",
  "latitude": 56.480177,
  "longitude": -2.819282
},{
  "_id": {
    "$oid": "634d6110c1a50566f8151a47"
  },
  "original_name": "Warwick and Warwickshire Advertiser",
  "official_name": "Warwick",
  "county": "Warwickshire",
  "country": "GB",
  "latitude": 52.28231599999999,
  "longitude": -1.584927
},{
  "_id": {
    "$oid": "634d6111c1a50566f8151a48"
  },
  "original_name": "Cupar",
  "official_name": "Cupar",
  "county": "Fife",
  "country": "GB",
  "latitude": 56.320235,
  "longitude": -3.010137
},{
  "_id": {
    "$oid": "634d6111c1a50566f8151a49"
  },
  "original_name": "Lanrick",
  "official_name": "Doune",
  "county": "Stirling",
  "country": "GB",
  "latitude": 56.2029361,
  "longitude": -4.1225603
},{
  "_id": {
    "$oid": "634d6111c1a50566f8151a4a"
  },
  "original_name": "Abbey Park",
  "official_name": "Leicester",
  "county": "Leicester",
  "country": "GB",
  "latitude": 52.6462333,
  "longitude": -1.1360127
},{
  "_id": {
    "$oid": "634d6111c1a50566f8151a4b"
  },
  "original_name": "Comrie",
  "official_name": "Comrie",
  "county": "Perth and Kinross",
  "country": "GB",
  "latitude": 56.377967,
  "longitude": -3.995171
},{
  "_id": {
    "$oid": "634d6111c1a50566f8151a4c"
  },
  "original_name": "Aberdeen",
  "official_name": "Aberdeen",
  "county": "Aberdeen City",
  "country": "GB",
  "latitude": 57.1498891,
  "longitude": -2.0937528
},{
  "_id": {
    "$oid": "634d6112c1a50566f8151a4d"
  },
  "original_name": "Jordanhill",
  "official_name": "Glasgow",
  "county": "Glasgow City",
  "country": "GB",
  "latitude": 55.8825843,
  "longitude": -4.3260599
},{
  "_id": {
    "$oid": "634d6112c1a50566f8151a4e"
  },
  "original_name": "Stirling",
  "official_name": "Stirling",
  "county": "Stirling",
  "country": "GB",
  "latitude": 56.1165227,
  "longitude": -3.9369029
},{
  "_id": {
    "$oid": "634d6112c1a50566f8151a4f"
  },
  "original_name": "Strageath Roman Fort",
  "official_name": "Kinross",
  "county": "Perth and Kinross",
  "country": "GB",
  "latitude": 56.3414444,
  "longitude": -3.7851246
},{
  "_id": {
    "$oid": "634d6112c1a50566f8151a50"
  },
  "original_name": "The White Hart Inn, Greenock",
  "official_name": "Greenock",
  "county": "Inverclyde",
  "country": "GB",
  "latitude": 55.95647599999999,
  "longitude": -4.771983
},{
  "_id": {
    "$oid": "634d6112c1a50566f8151a51"
  },
  "original_name": "Falkland estate",
  "official_name": "Falkland",
  "county": "Fife",
  "country": "GB",
  "latitude": 56.2539568,
  "longitude": -3.2176387
},{
  "_id": {
    "$oid": "634d6113c1a50566f8151a52"
  },
  "original_name": "Whitchurch, Salop.",
  "official_name": "Whitchurch",
  "county": "Shropshire",
  "country": "GB",
  "latitude": 52.968716,
  "longitude": -2.682045
},{
  "_id": {
    "$oid": "634d6113c1a50566f8151a53"
  },
  "original_name": "London",
  "official_name": "London",
  "county": "Greater London",
  "country": "GB",
  "latitude": 51.5072178,
  "longitude": -0.1275862
},{
  "_id": {
    "$oid": "634d6113c1a50566f8151a54"
  },
  "original_name": "London, UK",
  "official_name": "London",
  "county": "Greater London",
  "country": "GB",
  "latitude": 51.5072178,
  "longitude": -0.1275862
},{
  "_id": {
    "$oid": "634d6113c1a50566f8151a55"
  },
  "original_name": "Rescobie",
  "official_name": "Rescobie",
  "county": "Angus Council",
  "country": "GB",
  "latitude": 56.658641,
  "longitude": -2.806202
},{
  "_id": {
    "$oid": "634d6113c1a50566f8151a56"
  },
  "original_name": "Poona",
  "official_name": "Pune",
  "county": "Pune",
  "country": "IN",
  "latitude": 18.5204303,
  "longitude": 73.8567437
},{
  "_id": {
    "$oid": "634d6113c1a50566f8151a57"
  },
  "original_name": "Dunfermline",
  "official_name": "Dunfermline",
  "county": "Fife",
  "country": "GB",
  "latitude": 56.071741,
  "longitude": -3.452151
},{
  "_id": {
    "$oid": "634d6114c1a50566f8151a58"
  },
  "original_name": "Stirlingshire",
  "official_name": null,
  "county": "Stirling",
  "country": "GB",
  "latitude": 56.1165329,
  "longitude": -3.9369086
},{
  "_id": {
    "$oid": "634d6114c1a50566f8151a59"
  },
  "original_name": "Kirkby Stephen",
  "official_name": "Kirkby Stephen",
  "county": "Cumbria",
  "country": "GB",
  "latitude": 54.474279,
  "longitude": -2.348925
},{
  "_id": {
    "$oid": "634d6114c1a50566f8151a5a"
  },
  "original_name": "West End House, Hampstead",
  "official_name": "Leeds",
  "county": "West Yorkshire",
  "country": "GB",
  "latitude": 53.81715939999999,
  "longitude": -1.601994
},{
  "_id": {
    "$oid": "634d6114c1a50566f8151a5b"
  },
  "original_name": "Strathtay",
  "official_name": "Strathtay",
  "county": "Perth and Kinross",
  "country": "GB",
  "latitude": 56.663494,
  "longitude": -3.775986
},{
  "_id": {
    "$oid": "634d6114c1a50566f8151a5c"
  },
  "original_name": "Kinlochbervie",
  "official_name": "Kinlochbervie",
  "county": "Highland Council",
  "country": "GB",
  "latitude": 58.458818,
  "longitude": -5.049151999999999
},{
  "_id": {
    "$oid": "634d6114c1a50566f8151a5d"
  },
  "original_name": "Colliston",
  "official_name": "Colliston",
  "county": "Angus Council",
  "country": "GB",
  "latitude": 56.596542,
  "longitude": -2.645432
},{
  "_id": {
    "$oid": "634d6115c1a50566f8151a5e"
  },
  "original_name": "Redgorton",
  "official_name": "Redgorton",
  "county": "Perth and Kinross",
  "country": "GB",
  "latitude": 56.4429216,
  "longitude": -3.4798577
},{
  "_id": {
    "$oid": "634d6115c1a50566f8151a5f"
  },
  "original_name": "Coupar Angus",
  "official_name": "Coupar Angus",
  "county": "Perth and Kinross",
  "country": "GB",
  "latitude": 56.547918,
  "longitude": -3.265548
},{
  "_id": {
    "$oid": "634d6115c1a50566f8151a60"
  },
  "original_name": "High Holm, Port Glasgow",
  "official_name": "Port Glasgow",
  "county": "Inverclyde",
  "country": "GB",
  "latitude": 55.9344171,
  "longitude": -4.6963178
},{
  "_id": {
    "$oid": "634d6115c1a50566f8151a61"
  },
  "original_name": "Buittle",
  "official_name": "Castle Douglas",
  "county": "Dumfries and Galloway",
  "country": "GB",
  "latitude": 54.9414099,
  "longitude": -3.8658019
},{
  "_id": {
    "$oid": "634d6115c1a50566f8151a62"
  },
  "original_name": "Quadring, Lincs.",
  "official_name": "Quadring",
  "county": "Lincolnshire",
  "country": "GB",
  "latitude": 52.88169000000001,
  "longitude": -0.182081
},{
  "_id": {
    "$oid": "634d6116c1a50566f8151a63"
  },
  "original_name": "Burntisland",
  "official_name": "Burntisland",
  "county": "Fife",
  "country": "GB",
  "latitude": 56.058809,
  "longitude": -3.233915
},{
  "_id": {
    "$oid": "634d6116c1a50566f8151a64"
  },
  "original_name": "Halkin, UK",
  "official_name": "London",
  "county": "Greater London",
  "country": "GB",
  "latitude": 51.5089464,
  "longitude": -0.0843503
},{
  "_id": {
    "$oid": "634d6116c1a50566f8151a65"
  },
  "original_name": "Westley, Suffolk",
  "official_name": "Bury Saint Edmunds",
  "county": "Suffolk",
  "country": "GB",
  "latitude": 52.2478138,
  "longitude": 0.6607292
},{
  "_id": {
    "$oid": "634d6116c1a50566f8151a66"
  },
  "original_name": "Shrewsbury",
  "official_name": "Shrewsbury",
  "county": "Shropshire",
  "country": "GB",
  "latitude": 52.70730289999999,
  "longitude": -2.7553268
},{
  "_id": {
    "$oid": "634d6116c1a50566f8151a67"
  },
  "original_name": "Dunottar",
  "official_name": "Reigate",
  "county": "Surrey",
  "country": "GB",
  "latitude": 51.2317995,
  "longitude": -0.1836964
},{
  "_id": {
    "$oid": "634d6116c1a50566f8151a68"
  },
  "original_name": "Cork, Ireland",
  "official_name": "Cork",
  "county": null,
  "country": "IE",
  "latitude": 51.8985143,
  "longitude": -8.4756035
},{
  "_id": {
    "$oid": "634d6117c1a50566f8151a69"
  },
  "original_name": "George Town, Tasmania\n",
  "official_name": "George Town",
  "county": "George Town",
  "country": "AU",
  "latitude": -41.1057634,
  "longitude": 146.8265348
},{
  "_id": {
    "$oid": "634d6117c1a50566f8151a6a"
  },
  "original_name": "Kilmarnock",
  "official_name": "Kilmarnock",
  "county": "East Ayrshire Council",
  "country": "GB",
  "latitude": 55.614719,
  "longitude": -4.498792
},{
  "_id": {
    "$oid": "634d6117c1a50566f8151a6b"
  },
  "original_name": "Church Stretton, Shropshire",
  "official_name": "Church Stretton",
  "county": "Shropshire",
  "country": "GB",
  "latitude": 52.540698,
  "longitude": -2.803484
},{
  "_id": {
    "$oid": "634d6117c1a50566f8151a6c"
  },
  "original_name": "Lethendy",
  "official_name": "Meikleour",
  "county": "Perth and Kinross",
  "country": "GB",
  "latitude": 56.5593283,
  "longitude": -3.3999155
},{
  "_id": {
    "$oid": "634d6117c1a50566f8151a6d"
  },
  "original_name": "Glasgow",
  "official_name": "Glasgow",
  "county": "Glasgow City",
  "country": "GB",
  "latitude": 55.864237,
  "longitude": -4.251806
},{
  "_id": {
    "$oid": "634d6117c1a50566f8151a6e"
  },
  "original_name": "India",
  "official_name": null,
  "county": null,
  "country": "IN",
  "latitude": 20.593684,
  "longitude": 78.96288
},{
  "_id": {
    "$oid": "634d6118c1a50566f8151a6f"
  },
  "original_name": "Manchester",
  "official_name": "Manchester",
  "county": "Greater Manchester",
  "country": "GB",
  "latitude": 53.4807593,
  "longitude": -2.2426305
},{
  "_id": {
    "$oid": "634d6118c1a50566f8151a70"
  },
  "original_name": "Creich",
  "official_name": "Creich",
  "county": "Fife",
  "country": "GB",
  "latitude": 56.3789257,
  "longitude": -3.0897599
},{
  "_id": {
    "$oid": "634d6118c1a50566f8151a71"
  },
  "original_name": "Barry",
  "official_name": "Barry",
  "county": "Angus Council",
  "country": "GB",
  "latitude": 56.498939,
  "longitude": -2.7546149
},{
  "_id": {
    "$oid": "634d6118c1a50566f8151a72"
  },
  "original_name": "Blackford",
  "official_name": "Blackford",
  "county": "Perth and Kinross",
  "country": "GB",
  "latitude": 56.2623811,
  "longitude": -3.778368
},{
  "_id": {
    "$oid": "634d6118c1a50566f8151a73"
  },
  "original_name": "Plymouth Infirmary",
  "official_name": "Plymouth",
  "county": "Plymouth",
  "country": "GB",
  "latitude": 50.3754565,
  "longitude": -4.1426565
},{
  "_id": {
    "$oid": "634d6118c1a50566f8151a74"
  },
  "original_name": "Aberdeen University",
  "official_name": "Aberdeen",
  "county": "Aberdeen City",
  "country": "GB",
  "latitude": 57.16475999999999,
  "longitude": -2.1015257
},{
  "_id": {
    "$oid": "634d6119c1a50566f8151a75"
  },
  "original_name": "Blair Atholl",
  "official_name": "Blair Atholl",
  "county": "Perth and Kinross",
  "country": "GB",
  "latitude": 56.768184,
  "longitude": -3.843385
},{
  "_id": {
    "$oid": "634d6119c1a50566f8151a76"
  },
  "original_name": "Auchterarder",
  "official_name": "Auchterarder",
  "county": "Perth and Kinross",
  "country": "GB",
  "latitude": 56.300621,
  "longitude": -3.700041
},{
  "_id": {
    "$oid": "634d6119c1a50566f8151a77"
  },
  "original_name": "Kenmore",
  "official_name": "Kenmore",
  "county": "Perth and Kinross",
  "country": "GB",
  "latitude": 56.5871951,
  "longitude": -3.994938
},{
  "_id": {
    "$oid": "634d6119c1a50566f8151a78"
  },
  "original_name": "Berwick on Tweed",
  "official_name": "Berwick-upon-Tweed",
  "county": "Northumberland",
  "country": "GB",
  "latitude": 55.770242,
  "longitude": -2.005395
},{
  "_id": {
    "$oid": "634d6119c1a50566f8151a79"
  },
  "original_name": "Cleish",
  "official_name": "Cleish",
  "county": "Perth and Kinross",
  "country": "GB",
  "latitude": 56.165632,
  "longitude": -3.458929
},{
  "_id": {
    "$oid": "634d6119c1a50566f8151a7a"
  },
  "original_name": "Montrose",
  "official_name": "Montrose",
  "county": "Angus Council",
  "country": "GB",
  "latitude": 56.706922,
  "longitude": -2.466115
},{
  "_id": {
    "$oid": "634d611ac1a50566f8151a7b"
  },
  "original_name": "Paisley",
  "official_name": "Paisley",
  "county": "Renfrewshire",
  "country": "GB",
  "latitude": 55.847258,
  "longitude": -4.440113999999999
},{
  "_id": {
    "$oid": "634d611ac1a50566f8151a7c"
  },
  "original_name": "Denny",
  "official_name": "Denny",
  "county": "Falkirk",
  "country": "GB",
  "latitude": 56.021427,
  "longitude": -3.90685
},{
  "_id": {
    "$oid": "634d611ac1a50566f8151a7d"
  },
  "original_name": "Kilspindie",
  "official_name": "Aberlady",
  "county": "East Lothian Council",
  "country": "GB",
  "latitude": 56.012263,
  "longitude": -2.8736262
},{
  "_id": {
    "$oid": "634d611ac1a50566f8151a7e"
  },
  "original_name": "Kinfauns",
  "official_name": "Esher",
  "county": "Surrey",
  "country": "GB",
  "latitude": 51.3596122,
  "longitude": -0.3684648
},{
  "_id": {
    "$oid": "634d611ac1a50566f8151a7f"
  },
  "original_name": "Coldstone, Aberdeenshire",
  "official_name": "Coldstone",
  "county": "Aberdeenshire",
  "country": "GB",
  "latitude": 57.133333,
  "longitude": -2.933333
},{
  "_id": {
    "$oid": "634d611ac1a50566f8151a80"
  },
  "original_name": "Gateshead",
  "official_name": "Gateshead",
  "county": "Tyne and Wear",
  "country": "GB",
  "latitude": 54.95268,
  "longitude": -1.603411
},{
  "_id": {
    "$oid": "634d611bc1a50566f8151a81"
  },
  "original_name": "Kinnaird",
  "official_name": "Kinnaird",
  "county": "Perth and Kinross",
  "country": "GB",
  "latitude": 56.446361,
  "longitude": -3.22645
},{
  "_id": {
    "$oid": "634d611bc1a50566f8151a82"
  },
  "original_name": "Scone",
  "official_name": "Scone",
  "county": "Perth and Kinross",
  "country": "GB",
  "latitude": 56.419432,
  "longitude": -3.401932
},{
  "_id": {
    "$oid": "634d611bc1a50566f8151a83"
  },
  "original_name": "Gairloch",
  "official_name": "Gairloch",
  "county": "Highland Council",
  "country": "GB",
  "latitude": 57.72822000000001,
  "longitude": -5.693912
},{
  "_id": {
    "$oid": "634d611bc1a50566f8151a84"
  },
  "original_name": "St Andrews Grammar School",
  "official_name": "St Andrews",
  "county": "Fife",
  "country": "GB",
  "latitude": 56.3397753,
  "longitude": -2.7967214
},{
  "_id": {
    "$oid": "634d611bc1a50566f8151a85"
  },
  "original_name": "Holland",
  "official_name": null,
  "county": null,
  "country": "NL",
  "latitude": 52.132633,
  "longitude": 5.291265999999999
},{
  "_id": {
    "$oid": "634d611cc1a50566f8151a86"
  },
  "original_name": "Liberton",
  "official_name": "Edinburgh",
  "county": "Edinburgh",
  "country": "GB",
  "latitude": 55.913168,
  "longitude": -3.159998
},{
  "_id": {
    "$oid": "634d611cc1a50566f8151a87"
  },
  "original_name": "Kilmonivaig",
  "official_name": "Kilmonivaig",
  "county": "Highland Council",
  "country": "GB",
  "latitude": 56.89483070000001,
  "longitude": -4.9343306
},{
  "_id": {
    "$oid": "634d611cc1a50566f8151a88"
  },
  "original_name": "Axmouth, Devon",
  "official_name": "Axmouth",
  "county": "Devon",
  "country": "GB",
  "latitude": 50.71616299999999,
  "longitude": -3.0523209
},{
  "_id": {
    "$oid": "634d611cc1a50566f8151a89"
  },
  "original_name": "St Johns, Dundee",
  "official_name": "Dundee",
  "county": "Dundee City Council",
  "country": "GB",
  "latitude": 56.462018,
  "longitude": -2.970721
},{
  "_id": {
    "$oid": "634d611cc1a50566f8151a8a"
  },
  "original_name": "Redruth",
  "official_name": "Redruth",
  "county": "Cornwall",
  "country": "GB",
  "latitude": 50.233022,
  "longitude": -5.226666
},{
  "_id": {
    "$oid": "634d611cc1a50566f8151a8b"
  },
  "original_name": "Nottingham",
  "official_name": "Nottingham",
  "county": "Nottingham",
  "country": "GB",
  "latitude": 52.9540223,
  "longitude": -1.1549892
},{
  "_id": {
    "$oid": "634d611dc1a50566f8151a8c"
  },
  "original_name": "Kincardine",
  "official_name": "Kincardine",
  "county": "Fife",
  "country": "GB",
  "latitude": 56.06895799999999,
  "longitude": -3.716691999999999
},{
  "_id": {
    "$oid": "634d611dc1a50566f8151a8d"
  },
  "original_name": "Pitlethie, Leuchars",
  "official_name": "Leuchars",
  "county": "Fife",
  "country": "GB",
  "latitude": 56.3842357,
  "longitude": -2.879957
},{
  "_id": {
    "$oid": "634d611dc1a50566f8151a8e"
  },
  "original_name": "Alnwick, Northumberland",
  "official_name": "Alnwick",
  "county": "Northumberland",
  "country": "GB",
  "latitude": 55.412744,
  "longitude": -1.706299
},{
  "_id": {
    "$oid": "634d611dc1a50566f8151a8f"
  },
  "original_name": "Cambusnethan parish",
  "official_name": "Wishaw",
  "county": "North Lanarkshire",
  "country": "GB",
  "latitude": 55.7835528,
  "longitude": -3.8983199
},{
  "_id": {
    "$oid": "634d611dc1a50566f8151a90"
  },
  "original_name": "Foveran",
  "official_name": "Foveran",
  "county": "Aberdeenshire",
  "country": "GB",
  "latitude": 57.30885300000001,
  "longitude": -2.0159541
},{
  "_id": {
    "$oid": "634d611dc1a50566f8151a91"
  },
  "original_name": "Howden, Yorkshire",
  "official_name": "Howden",
  "county": "East Riding of Yorkshire",
  "country": "GB",
  "latitude": 53.745894,
  "longitude": -0.868877
},{
  "_id": {
    "$oid": "634d611ec1a50566f8151a92"
  },
  "original_name": "Gamrie",
  "official_name": "Gamrie",
  "county": "Aberdeenshire",
  "country": "GB",
  "latitude": 57.65432200000001,
  "longitude": -2.346247
},{
  "_id": {
    "$oid": "634d611ec1a50566f8151a93"
  },
  "original_name": "Crawfordjohn",
  "official_name": "Crawfordjohn",
  "county": "South Lanarkshire",
  "country": "GB",
  "latitude": 55.494754,
  "longitude": -3.775164
},{
  "_id": {
    "$oid": "634d611ec1a50566f8151a94"
  },
  "original_name": "Bere Ferrers",
  "official_name": "Bere Ferrers",
  "county": "Devon",
  "country": "GB",
  "latitude": 50.45130810000001,
  "longitude": -4.1712389
},{
  "_id": {
    "$oid": "634d611ec1a50566f8151a95"
  },
  "original_name": "Aberfeldy",
  "official_name": "Aberfeldy",
  "county": "Perth and Kinross",
  "country": "GB",
  "latitude": 56.621752,
  "longitude": -3.866969
},{
  "_id": {
    "$oid": "634d611ec1a50566f8151a96"
  },
  "original_name": "Charlton, Kilconquhar",
  "official_name": "Kilconquhar",
  "county": "Fife",
  "country": "GB",
  "latitude": 56.208698,
  "longitude": -2.827716
},{
  "_id": {
    "$oid": "634d611fc1a50566f8151a97"
  },
  "original_name": "Northleach",
  "official_name": "Northleach",
  "county": "Gloucestershire",
  "country": "GB",
  "latitude": 51.830777,
  "longitude": -1.837254
},{
  "_id": {
    "$oid": "634d611fc1a50566f8151a98"
  },
  "original_name": "York",
  "official_name": "York",
  "county": "York",
  "country": "GB",
  "latitude": 53.9614205,
  "longitude": -1.0739108
},{
  "_id": {
    "$oid": "634d611fc1a50566f8151a99"
  },
  "original_name": "Liverpool",
  "official_name": "Liverpool",
  "county": "Merseyside",
  "country": "GB",
  "latitude": 53.4083714,
  "longitude": -2.9915726
},{
  "_id": {
    "$oid": "634d611fc1a50566f8151a9a"
  },
  "original_name": "Scone, UK",
  "official_name": null,
  "county": null,
  "country": "GB",
  "latitude": 55.378051,
  "longitude": -3.435973
},{
  "_id": {
    "$oid": "634d611fc1a50566f8151a9b"
  },
  "original_name": "Stornoway",
  "official_name": "Stornoway",
  "county": "Na h-Eileanan an Iar",
  "country": "GB",
  "latitude": 58.209435,
  "longitude": -6.3848692
},{
  "_id": {
    "$oid": "634d611fc1a50566f8151a9c"
  },
  "original_name": "Martham, Norfolk",
  "official_name": "Martham",
  "county": "Norfolk",
  "country": "GB",
  "latitude": 52.70538699999999,
  "longitude": 1.628141
},{
  "_id": {
    "$oid": "634d611fc1a50566f8151a9d"
  },
  "original_name": "Leuchars",
  "official_name": "Leuchars",
  "county": "Fife",
  "country": "GB",
  "latitude": 56.380807,
  "longitude": -2.882275
},{
  "_id": {
    "$oid": "634d6120c1a50566f8151a9e"
  },
  "original_name": "Greenock",
  "official_name": "Greenock",
  "county": "Inverclyde",
  "country": "GB",
  "latitude": 55.95647599999999,
  "longitude": -4.771983
},{
  "_id": {
    "$oid": "634d6120c1a50566f8151a9f"
  },
  "original_name": "Blair Atholl, UK",
  "official_name": "Blair Atholl",
  "county": "Perth and Kinross",
  "country": "GB",
  "latitude": 56.768184,
  "longitude": -3.843385
},{
  "_id": {
    "$oid": "634d6120c1a50566f8151aa0"
  },
  "original_name": "Falkirk",
  "official_name": "Falkirk",
  "county": "Falkirk",
  "country": "GB",
  "latitude": 56.00187750000001,
  "longitude": -3.7839131
},{
  "_id": {
    "$oid": "634d6120c1a50566f8151aa1"
  },
  "original_name": "Borwick in Elmet",
  "official_name": "Barwick in Elmet",
  "county": "West Yorkshire",
  "country": "GB",
  "latitude": 53.830287,
  "longitude": -1.397122
},{
  "_id": {
    "$oid": "634d6120c1a50566f8151aa2"
  },
  "original_name": "Logie",
  "official_name": "Logie",
  "county": "Fife",
  "country": "GB",
  "latitude": 56.372125,
  "longitude": -2.966155
},{
  "_id": {
    "$oid": "634d6121c1a50566f8151aa3"
  },
  "original_name": "Lochee",
  "official_name": "Dundee",
  "county": "Dundee City Council",
  "country": "GB",
  "latitude": 56.4706264,
  "longitude": -3.0085609
},{
  "_id": {
    "$oid": "634d6121c1a50566f8151aa4"
  },
  "original_name": "Ballater",
  "official_name": "Ballater",
  "county": "Aberdeenshire",
  "country": "GB",
  "latitude": 57.05003,
  "longitude": -3.036649
},{
  "_id": {
    "$oid": "634d6121c1a50566f8151aa5"
  },
  "original_name": "Campbeltown",
  "official_name": "Campbeltown",
  "county": "Argyll and Bute Council",
  "country": "GB",
  "latitude": 55.424117,
  "longitude": -5.605373999999999
},{
  "_id": {
    "$oid": "634d6121c1a50566f8151aa6"
  },
  "original_name": "Kilgetty",
  "official_name": "Kilgetty",
  "county": "Pembrokeshire",
  "country": "GB",
  "latitude": 51.731792,
  "longitude": -4.717631
},{
  "_id": {
    "$oid": "634d6121c1a50566f8151aa7"
  },
  "original_name": "Dunkeld",
  "official_name": "Dunkeld",
  "county": "Perth and Kinross",
  "country": "GB",
  "latitude": 56.5676532,
  "longitude": -3.5862204
},{
  "_id": {
    "$oid": "634d6121c1a50566f8151aa8"
  },
  "original_name": "Kirkhaugh",
  "official_name": "Kirkhaugh",
  "county": "Northumberland",
  "country": "GB",
  "latitude": 54.843324,
  "longitude": -2.4794
},{
  "_id": {
    "$oid": "634d6122c1a50566f8151aa9"
  },
  "original_name": "Kilrenny",
  "official_name": "Kilrenny",
  "county": "Fife",
  "country": "GB",
  "latitude": 56.23374099999999,
  "longitude": -2.689126
},{
  "_id": {
    "$oid": "634d6122c1a50566f8151aaa"
  },
  "original_name": "Perth Academy",
  "official_name": "Perth",
  "county": "Perth and Kinross",
  "country": "GB",
  "latitude": 56.390989,
  "longitude": -3.4591112
},{
  "_id": {
    "$oid": "634d6122c1a50566f8151aab"
  },
  "original_name": "Glenorchy",
  "official_name": "Glenorchy",
  "county": null,
  "country": "NZ",
  "latitude": -44.8490774,
  "longitude": 168.3876691
},{
  "_id": {
    "$oid": "634d6122c1a50566f8151aac"
  },
  "original_name": "Rannoch, UK",
  "official_name": "Pitlochry",
  "county": "Perth and Kinross",
  "country": "GB",
  "latitude": 56.6976723,
  "longitude": -4.2282552
},{
  "_id": {
    "$oid": "634d6122c1a50566f8151aad"
  },
  "original_name": "Dunning",
  "official_name": "Dunning",
  "county": "Perth and Kinross",
  "country": "GB",
  "latitude": 56.312704,
  "longitude": -3.584365
},{
  "_id": {
    "$oid": "634d6123c1a50566f8151aae"
  },
  "original_name": "Montrose Grammar school",
  "official_name": "Montrose",
  "county": "Angus Council",
  "country": "GB",
  "latitude": 56.706922,
  "longitude": -2.466115
},{
  "_id": {
    "$oid": "634d6123c1a50566f8151aaf"
  },
  "original_name": "Arbroath",
  "official_name": "Arbroath",
  "county": "Angus Council",
  "country": "GB",
  "latitude": 56.559107,
  "longitude": -2.591543
},{
  "_id": {
    "$oid": "634d6123c1a50566f8151ab0"
  },
  "original_name": "Stathaven",
  "official_name": "Strathaven",
  "county": "South Lanarkshire",
  "country": "GB",
  "latitude": 55.675627,
  "longitude": -4.064323000000001
},{
  "_id": {
    "$oid": "634d6123c1a50566f8151ab1"
  },
  "original_name": "Berwick",
  "official_name": "Berwick-upon-Tweed",
  "county": "Northumberland",
  "country": "GB",
  "latitude": 55.770242,
  "longitude": -2.005395
},{
  "_id": {
    "$oid": "634d6123c1a50566f8151ab2"
  },
  "original_name": "Kettle",
  "official_name": "Kingskettle",
  "county": "Fife",
  "country": "GB",
  "latitude": 56.262899,
  "longitude": -3.113517
},{
  "_id": {
    "$oid": "634d6123c1a50566f8151ab3"
  },
  "original_name": "Fortingall, UK",
  "official_name": "Fortingall",
  "county": "Perth and Kinross",
  "country": "GB",
  "latitude": 56.600945,
  "longitude": -4.052476
},{
  "_id": {
    "$oid": "634d6124c1a50566f8151ab4"
  },
  "original_name": "Duns",
  "official_name": "Duns",
  "county": "Scottish Borders",
  "country": "GB",
  "latitude": 55.777794,
  "longitude": -2.343461
},{
  "_id": {
    "$oid": "634d6124c1a50566f8151ab5"
  },
  "original_name": "Forgandenny",
  "official_name": "Forgandenny",
  "county": "Perth and Kinross",
  "country": "GB",
  "latitude": 56.345935,
  "longitude": -3.480292
},{
  "_id": {
    "$oid": "634d6124c1a50566f8151ab6"
  },
  "original_name": "Bathgate",
  "official_name": "Bathgate",
  "county": "West Lothian",
  "country": "GB",
  "latitude": 55.9024,
  "longitude": -3.643118
},{
  "_id": {
    "$oid": "634d6124c1a50566f8151ab7"
  },
  "original_name": "St. George's, Grenada",
  "official_name": "St George's",
  "county": null,
  "country": "GD",
  "latitude": 12.0560975,
  "longitude": -61.7487996
},{
  "_id": {
    "$oid": "634d6124c1a50566f8151ab8"
  },
  "original_name": "Brechin",
  "official_name": "Brechin",
  "county": "Angus Council",
  "country": "GB",
  "latitude": 56.73334200000001,
  "longitude": -2.6552889
},{
  "_id": {
    "$oid": "634d6125c1a50566f8151aba"
  },
  "original_name": "Scoonie, Leven",
  "official_name": "Leven",
  "county": "Fife",
  "country": "GB",
  "latitude": 56.2012592,
  "longitude": -2.9932197
},{
  "_id": {
    "$oid": "634d6125c1a50566f8151abb"
  },
  "original_name": "Mains Castle",
  "official_name": "Dundee",
  "county": "Dundee City Council",
  "country": "GB",
  "latitude": 56.4854842,
  "longitude": -2.9582258
},{
  "_id": {
    "$oid": "634d6125c1a50566f8151abc"
  },
  "original_name": "Kirkmichael, UK",
  "official_name": "Kirkmichael",
  "county": "Perth and Kinross",
  "country": "GB",
  "latitude": 56.7223489,
  "longitude": -3.5041293
},{
  "_id": {
    "$oid": "634d6125c1a50566f8151abd"
  },
  "original_name": "Kilconquhar",
  "official_name": "Kilconquhar",
  "county": "Fife",
  "country": "GB",
  "latitude": 56.208698,
  "longitude": -2.827716
},{
  "_id": {
    "$oid": "634d6125c1a50566f8151abe"
  },
  "original_name": "Cupar, UK",
  "official_name": "Cupar",
  "county": "Fife",
  "country": "GB",
  "latitude": 56.320235,
  "longitude": -3.010137
},{
  "_id": {
    "$oid": "634d6126c1a50566f8151abf"
  },
  "original_name": "School of Mines, London",
  "official_name": "London",
  "county": "Greater London",
  "country": "GB",
  "latitude": 51.4997627,
  "longitude": -0.1756911
},{
  "_id": {
    "$oid": "634d6126c1a50566f8151ac0"
  },
  "original_name": "Latheron",
  "official_name": "Latheron",
  "county": "Highland Council",
  "country": "GB",
  "latitude": 58.283276,
  "longitude": -3.366858
},{
  "_id": {
    "$oid": "634d6126c1a50566f8151ac1"
  },
  "original_name": "Broughty Ferry",
  "official_name": "Dundee",
  "county": "Dundee City Council",
  "country": "GB",
  "latitude": 56.4692371,
  "longitude": -2.8814982
},{
  "_id": {
    "$oid": "634d6126c1a50566f8151ac2"
  },
  "original_name": "Kirriemuir",
  "official_name": "Kirriemuir",
  "county": "Angus Council",
  "country": "GB",
  "latitude": 56.675117,
  "longitude": -3.003501
},{
  "_id": {
    "$oid": "634d6126c1a50566f8151ac3"
  },
  "original_name": "Killin",
  "official_name": "Killin",
  "county": "Stirling",
  "country": "GB",
  "latitude": 56.46934599999999,
  "longitude": -4.319211
},{
  "_id": {
    "$oid": "634d6126c1a50566f8151ac4"
  },
  "original_name": "Muthill",
  "official_name": "Muthill",
  "county": "Perth and Kinross",
  "country": "GB",
  "latitude": 56.3307849,
  "longitude": -3.8328891
},{
  "_id": {
    "$oid": "634d6127c1a50566f8151ac5"
  },
  "original_name": "New Cumnock",
  "official_name": "New Cumnock",
  "county": "East Ayrshire Council",
  "country": "GB",
  "latitude": 55.391316,
  "longitude": -4.187115
},{
  "_id": {
    "$oid": "634d6127c1a50566f8151ac6"
  },
  "original_name": "West Green, Liff",
  "official_name": "Dundee",
  "county": "Angus Council",
  "country": "GB",
  "latitude": 56.4839526,
  "longitude": -3.0809046
},{
  "_id": {
    "$oid": "634d6127c1a50566f8151ac7"
  },
  "original_name": "Balmerino",
  "official_name": "Balmerino",
  "county": "Fife",
  "country": "GB",
  "latitude": 56.410656,
  "longitude": -3.042739
},{
  "_id": {
    "$oid": "634d6127c1a50566f8151ac8"
  },
  "original_name": "Logierait",
  "official_name": "Logierait",
  "county": "Perth and Kinross",
  "country": "GB",
  "latitude": 56.655621,
  "longitude": -3.670380899999999
},{
  "_id": {
    "$oid": "634d6127c1a50566f8151ac9"
  },
  "original_name": "Dunnichen",
  "official_name": "Dunnichen",
  "county": "Angus Council",
  "country": "GB",
  "latitude": 56.629306,
  "longitude": -2.806582
},{
  "_id": {
    "$oid": "634d6127c1a50566f8151aca"
  },
  "original_name": "Chorley",
  "official_name": "Chorley",
  "county": "Lancashire",
  "country": "GB",
  "latitude": 53.653511,
  "longitude": -2.632596
},{
  "_id": {
    "$oid": "634d6128c1a50566f8151acb"
  },
  "original_name": "Rendlesham, Suffolk",
  "official_name": "Rendlesham",
  "county": "Suffolk",
  "country": "GB",
  "latitude": 52.125279,
  "longitude": 1.412014
},{
  "_id": {
    "$oid": "634d6128c1a50566f8151acc"
  },
  "original_name": "the Bahamas",
  "official_name": null,
  "county": null,
  "country": "BS",
  "latitude": 25.03428,
  "longitude": -77.39627999999999
},{
  "_id": {
    "$oid": "634d6128c1a50566f8151acd"
  },
  "original_name": "Balmullo",
  "official_name": "Balmullo",
  "county": "Fife",
  "country": "GB",
  "latitude": 56.37568899999999,
  "longitude": -2.927557
},{
  "_id": {
    "$oid": "634d6128c1a50566f8151ace"
  },
  "original_name": "Whitby",
  "official_name": "Whitby",
  "county": "North Yorkshire",
  "country": "GB",
  "latitude": 54.486335,
  "longitude": -0.613347
},{
  "_id": {
    "$oid": "634d6128c1a50566f8151acf"
  },
  "original_name": "Dysart",
  "official_name": "Dysart",
  "county": "Fife",
  "country": "GB",
  "latitude": 56.127911,
  "longitude": -3.122933
},{
  "_id": {
    "$oid": "634d6129c1a50566f8151ad0"
  },
  "original_name": "North Leith",
  "official_name": "Edinburgh",
  "county": "Edinburgh",
  "country": "GB",
  "latitude": 55.97552779999999,
  "longitude": -3.1665102
},{
  "_id": {
    "$oid": "634d6129c1a50566f8151ad1"
  },
  "original_name": "Cavers",
  "official_name": "Cavers",
  "county": "Scottish Borders",
  "country": "GB",
  "latitude": 55.434386,
  "longitude": -2.724691
},{
  "_id": {
    "$oid": "634d6129c1a50566f8151ad2"
  },
  "original_name": "Warriston Crescent, Edinburgh",
  "official_name": "Edinburgh",
  "county": "Edinburgh",
  "country": "GB",
  "latitude": 55.9641916,
  "longitude": -3.1999727
},{
  "_id": {
    "$oid": "634d6129c1a50566f8151ad3"
  },
  "original_name": "Rawyards, Lanark",
  "official_name": "Airdrie",
  "county": "North Lanarkshire",
  "country": "GB",
  "latitude": 55.876137,
  "longitude": -3.9607462
},{
  "_id": {
    "$oid": "634d6129c1a50566f8151ad4"
  },
  "original_name": "Carmarthen",
  "official_name": "Carmarthen",
  "county": "Carmarthenshire",
  "country": "GB",
  "latitude": 51.85762,
  "longitude": -4.312131
},{
  "_id": {
    "$oid": "634d6129c1a50566f8151ad5"
  },
  "original_name": "Tibbermore",
  "official_name": "Tibbermore",
  "county": "Perth and Kinross",
  "country": "GB",
  "latitude": 56.3955908,
  "longitude": -3.5400005
},{
  "_id": {
    "$oid": "634d612ac1a50566f8151ad6"
  },
  "original_name": "Chunar, India",
  "official_name": "Chunar",
  "county": "Mirzapur",
  "country": "IN",
  "latitude": 25.1036684,
  "longitude": 82.8721383
},{
  "_id": {
    "$oid": "634d612ac1a50566f8151ad7"
  },
  "original_name": "Newport, UK",
  "official_name": "Newport",
  "county": "Newport",
  "country": "GB",
  "latitude": 51.584151,
  "longitude": -2.997664
},{
  "_id": {
    "$oid": "634d612ac1a50566f8151ad8"
  },
  "original_name": "Almondbank",
  "official_name": "Almondbank",
  "county": "Perth and Kinross",
  "country": "GB",
  "latitude": 56.418785,
  "longitude": -3.515002
},{
  "_id": {
    "$oid": "634d612ac1a50566f8151ad9"
  },
  "original_name": "Broughton",
  "official_name": "Broughton",
  "county": "Flintshire",
  "country": "GB",
  "latitude": 53.163494,
  "longitude": -2.997219
},{
  "_id": {
    "$oid": "634d612ac1a50566f8151ada"
  },
  "original_name": "Clackmannan",
  "official_name": "Clackmannan",
  "county": "Clackmannanshire",
  "country": "GB",
  "latitude": 56.107682,
  "longitude": -3.752998
},{
  "_id": {
    "$oid": "634d612ac1a50566f8151adb"
  },
  "original_name": "Haddington",
  "official_name": "Haddington",
  "county": "East Lothian Council",
  "country": "GB",
  "latitude": 55.95867399999999,
  "longitude": -2.774864
},{
  "_id": {
    "$oid": "634d612ac1a50566f8151adc"
  },
  "original_name": "Midcalder",
  "official_name": "Mid Calder",
  "county": "West Lothian",
  "country": "GB",
  "latitude": 55.889243,
  "longitude": -3.481626
},{
  "_id": {
    "$oid": "634d612bc1a50566f8151add"
  },
  "original_name": "Coldingham",
  "official_name": "Coldingham",
  "county": "Scottish Borders",
  "country": "GB",
  "latitude": 55.8861059,
  "longitude": -2.1582781
},{
  "_id": {
    "$oid": "634d612bc1a50566f8151ade"
  },
  "original_name": "Kirkcaldy",
  "official_name": "Kirkcaldy",
  "county": "Fife",
  "country": "GB",
  "latitude": 56.1168249,
  "longitude": -3.158137
},{
  "_id": {
    "$oid": "634d612bc1a50566f8151adf"
  },
  "original_name": "Dron",
  "official_name": "Dron",
  "county": "Perth and Kinross",
  "country": "GB",
  "latitude": 56.326432,
  "longitude": -3.383547
},{
  "_id": {
    "$oid": "634d612bc1a50566f8151ae0"
  },
  "original_name": "Old Monkland, Glasgow",
  "official_name": "Coatbridge",
  "county": "North Lanarkshire",
  "country": "GB",
  "latitude": 55.8485065,
  "longitude": -4.0386894
},{
  "_id": {
    "$oid": "634d612bc1a50566f8151ae1"
  },
  "original_name": "Kelso",
  "official_name": "Kelso",
  "county": "Scottish Borders",
  "country": "GB",
  "latitude": 55.600029,
  "longitude": -2.432207
},{
  "_id": {
    "$oid": "634d612cc1a50566f8151ae2"
  },
  "original_name": "Madras College, St Andrews",
  "official_name": "St Andrews",
  "county": "Fife",
  "country": "GB",
  "latitude": 56.3384513,
  "longitude": -2.8234837
},{
  "_id": {
    "$oid": "634d612cc1a50566f8151ae3"
  },
  "original_name": "Elie",
  "official_name": "Earlsferry",
  "county": "Fife",
  "country": "GB",
  "latitude": 56.18962999999999,
  "longitude": -2.8341409
},{
  "_id": {
    "$oid": "634d612cc1a50566f8151ae4"
  },
  "original_name": "Mixbury",
  "official_name": "Mixbury",
  "county": "Oxfordshire",
  "country": "GB",
  "latitude": 51.99989,
  "longitude": -1.116108
},{
  "_id": {
    "$oid": "634d612cc1a50566f8151ae5"
  },
  "original_name": "Leslie",
  "official_name": "Leslie",
  "county": "Fife",
  "country": "GB",
  "latitude": 56.200481,
  "longitude": -3.214391
},{
  "_id": {
    "$oid": "634d612cc1a50566f8151ae6"
  },
  "original_name": "Saline",
  "official_name": "Saline",
  "county": "Fife",
  "country": "GB",
  "latitude": 56.114761,
  "longitude": -3.569448
},{
  "_id": {
    "$oid": "634d612dc1a50566f8151ae7"
  },
  "original_name": "Blairgowrie",
  "official_name": "Blairgowrie and Rattray",
  "county": "Perth and Kinross",
  "country": "GB",
  "latitude": 56.5894057,
  "longitude": -3.3378318
},{
  "_id": {
    "$oid": "634d612dc1a50566f8151ae8"
  },
  "original_name": "Bristol",
  "official_name": "Bristol",
  "county": "Bristol City",
  "country": "GB",
  "latitude": 51.454513,
  "longitude": -2.58791
},{
  "_id": {
    "$oid": "634d612dc1a50566f8151ae9"
  },
  "original_name": "Alyth",
  "official_name": "Alyth",
  "county": "Perth and Kinross",
  "country": "GB",
  "latitude": 56.62578,
  "longitude": -3.226867
},{
  "_id": {
    "$oid": "634d612dc1a50566f8151aea"
  },
  "original_name": "Anstruther",
  "official_name": "Anstruther",
  "county": "Fife",
  "country": "GB",
  "latitude": 56.22298000000001,
  "longitude": -2.700539
},{
  "_id": {
    "$oid": "634d612dc1a50566f8151aeb"
  },
  "original_name": "Carnbee",
  "official_name": "Carnbee",
  "county": "Fife",
  "country": "GB",
  "latitude": 56.249607,
  "longitude": -2.761444
},{
  "_id": {
    "$oid": "634d612dc1a50566f8151aec"
  },
  "original_name": "Leith",
  "official_name": "Edinburgh",
  "county": "Edinburgh",
  "country": "GB",
  "latitude": 55.97552779999999,
  "longitude": -3.1665102
},{
  "_id": {
    "$oid": "634d612dc1a50566f8151aed"
  },
  "original_name": "Cuby with Tregony, Cornwall",
  "official_name": "Tregony",
  "county": "Cornwall",
  "country": "GB",
  "latitude": 50.2678825,
  "longitude": -4.9056411
},{
  "_id": {
    "$oid": "634d612ec1a50566f8151aee"
  },
  "original_name": "Guyana",
  "official_name": null,
  "county": null,
  "country": "GY",
  "latitude": 4.860416,
  "longitude": -58.93018
},{
  "_id": {
    "$oid": "634d612ec1a50566f8151aef"
  },
  "original_name": "Madderty",
  "official_name": "Madderty",
  "county": "Perth and Kinross",
  "country": "GB",
  "latitude": 56.378491,
  "longitude": -3.695947
},{
  "_id": {
    "$oid": "634d612ec1a50566f8151af0"
  },
  "original_name": "Torryburn",
  "official_name": "Torryburn",
  "county": "Fife",
  "country": "GB",
  "latitude": 56.05791199999999,
  "longitude": -3.568903
},{
  "_id": {
    "$oid": "634d612ec1a50566f8151af1"
  },
  "original_name": "Cramond",
  "official_name": "Edinburgh",
  "county": "Edinburgh",
  "country": "GB",
  "latitude": 55.9695532,
  "longitude": -3.3073398
},{
  "_id": {
    "$oid": "634d612ec1a50566f8151af2"
  },
  "original_name": "Thornhill Rectory",
  "official_name": "Thornhill",
  "county": "Dumfries and Galloway",
  "country": "GB",
  "latitude": 55.245949,
  "longitude": -3.769113
},{
  "_id": {
    "$oid": "634d612fc1a50566f8151af3"
  },
  "original_name": "Greenlaw",
  "official_name": "Greenlaw",
  "county": "Scottish Borders",
  "country": "GB",
  "latitude": 55.706534,
  "longitude": -2.463809
},{
  "_id": {
    "$oid": "634d612fc1a50566f8151af4"
  },
  "original_name": "Christchurch, Hants",
  "official_name": "Christchurch",
  "county": "Dorset",
  "country": "GB",
  "latitude": 50.735777,
  "longitude": -1.778586
},{
  "_id": {
    "$oid": "634d612fc1a50566f8151af5"
  },
  "original_name": "Braughing, Herts.",
  "official_name": "Braughing",
  "county": "Hertfordshire",
  "country": "GB",
  "latitude": 51.9084535,
  "longitude": 0.0327857
},{
  "_id": {
    "$oid": "634d612fc1a50566f8151af6"
  },
  "original_name": "Fordell",
  "official_name": "Fordell",
  "county": "Fife",
  "country": "GB",
  "latitude": 56.081891,
  "longitude": -3.355239
},{
  "_id": {
    "$oid": "634d612fc1a50566f8151af7"
  },
  "original_name": "Kinlochbervie, Lairg",
  "official_name": "Kinlochbervie",
  "county": "Highland Council",
  "country": "GB",
  "latitude": 58.458818,
  "longitude": -5.049151999999999
},{
  "_id": {
    "$oid": "634d612fc1a50566f8151af8"
  },
  "original_name": "Hatton of Eassie",
  "official_name": "Eassie",
  "county": "Angus Council",
  "country": "GB",
  "latitude": 56.59380299999999,
  "longitude": -3.083014
},{
  "_id": {
    "$oid": "634d6130c1a50566f8151af9"
  },
  "original_name": "Monikie",
  "official_name": "Monikie",
  "county": "Angus Council",
  "country": "GB",
  "latitude": 56.53540899999999,
  "longitude": -2.813284
},{
  "_id": {
    "$oid": "634d6130c1a50566f8151afa"
  },
  "original_name": "Newburn",
  "official_name": "Newcastle upon Tyne",
  "county": "Tyne and Wear",
  "country": "GB",
  "latitude": 54.9842861,
  "longitude": -1.7425365
},{
  "_id": {
    "$oid": "634d6130c1a50566f8151afb"
  },
  "original_name": "Alloa",
  "official_name": "Alloa",
  "county": "Clackmannanshire",
  "country": "GB",
  "latitude": 56.114073,
  "longitude": -3.791896
},{
  "_id": {
    "$oid": "634d6130c1a50566f8151afc"
  },
  "original_name": "Methven",
  "official_name": "Methven",
  "county": "Perth and Kinross",
  "country": "GB",
  "latitude": 56.417234,
  "longitude": -3.576942
},{
  "_id": {
    "$oid": "634d6130c1a50566f8151afd"
  },
  "original_name": "Prestonpans",
  "official_name": "Prestonpans",
  "county": "East Lothian Council",
  "country": "GB",
  "latitude": 55.95953799999999,
  "longitude": -2.984467
},{
  "_id": {
    "$oid": "634d6130c1a50566f8151afe"
  },
  "original_name": "Helston, Cornwall",
  "official_name": "Helston",
  "county": "Cornwall",
  "country": "GB",
  "latitude": 50.101593,
  "longitude": -5.274996
},{
  "_id": {
    "$oid": "634d6131c1a50566f8151aff"
  },
  "original_name": "Clunie",
  "official_name": "Clunie",
  "county": "Perth and Kinross",
  "country": "GB",
  "latitude": 56.57496399999999,
  "longitude": -3.450693
},{
  "_id": {
    "$oid": "634d6131c1a50566f8151b00"
  },
  "original_name": "Lunan, Forfarshire",
  "official_name": "Lunan",
  "county": "Angus Council",
  "country": "GB",
  "latitude": 56.655727,
  "longitude": -2.512783
},{
  "_id": {
    "$oid": "634d6131c1a50566f8151b01"
  },
  "original_name": "Forfar",
  "official_name": "Forfar",
  "county": "Angus Council",
  "country": "GB",
  "latitude": 56.643558,
  "longitude": -2.889062
},{
  "_id": {
    "$oid": "634d6131c1a50566f8151b02"
  },
  "original_name": "Great Easton, Leicester",
  "official_name": "Great Easton",
  "county": "Leicestershire",
  "country": "GB",
  "latitude": 52.527231,
  "longitude": -0.7496079999999999
},{
  "_id": {
    "$oid": "634d6131c1a50566f8151b03"
  },
  "original_name": "Fortingall",
  "official_name": "Fortingall",
  "county": "Perth and Kinross",
  "country": "GB",
  "latitude": 56.600945,
  "longitude": -4.052476
},{
  "_id": {
    "$oid": "634d6131c1a50566f8151b04"
  },
  "original_name": "Oathlaw",
  "official_name": "Oathlaw",
  "county": "Angus Council",
  "country": "GB",
  "latitude": 56.697263,
  "longitude": -2.859432
},{
  "_id": {
    "$oid": "634d6132c1a50566f8151b05"
  },
  "original_name": "Bankhead, Cupar",
  "official_name": "Cupar",
  "county": "Fife",
  "country": "GB",
  "latitude": 56.320235,
  "longitude": -3.010137
},{
  "_id": {
    "$oid": "634d6132c1a50566f8151b06"
  },
  "original_name": "Montreal, Canada",
  "official_name": "Montreal",
  "county": "Montreal",
  "country": "CA",
  "latitude": 45.5018869,
  "longitude": -73.56739189999999
},{
  "_id": {
    "$oid": "634d6132c1a50566f8151b07"
  },
  "original_name": "Topsham, Devon",
  "official_name": "Topsham",
  "county": "Devon",
  "country": "GB",
  "latitude": 50.684555,
  "longitude": -3.466689
},{
  "_id": {
    "$oid": "634d6132c1a50566f8151b08"
  },
  "original_name": "Stepney",
  "official_name": "London",
  "county": "Greater London",
  "country": "GB",
  "latitude": 51.5222254,
  "longitude": -0.0491574
},{
  "_id": {
    "$oid": "634d6132c1a50566f8151b09"
  },
  "original_name": "Rogart",
  "official_name": "Rogart",
  "county": "Highland Council",
  "country": "GB",
  "latitude": 58.0047258,
  "longitude": -4.139955
},{
  "_id": {
    "$oid": "634d6132c1a50566f8151b0a"
  },
  "original_name": "Kirkmichael",
  "official_name": "Kirkmichael",
  "county": "Perth and Kinross",
  "country": "GB",
  "latitude": 56.7223489,
  "longitude": -3.5041293
},{
  "_id": {
    "$oid": "634d6133c1a50566f8151b0b"
  },
  "original_name": "Penicuik",
  "official_name": "Penicuik",
  "county": "Midlothian",
  "country": "GB",
  "latitude": 55.830932,
  "longitude": -3.224533
},{
  "_id": {
    "$oid": "634d6133c1a50566f8151b0c"
  },
  "original_name": "Mouswald",
  "official_name": "Mouswald",
  "county": "Dumfries and Galloway",
  "country": "GB",
  "latitude": 55.039659,
  "longitude": -3.463783
},{
  "_id": {
    "$oid": "634d6133c1a50566f8151b0d"
  },
  "original_name": "Monkwearmouth",
  "official_name": "Sunderland",
  "county": "Tyne and Wear",
  "country": "GB",
  "latitude": 54.91613,
  "longitude": -1.3865376
},{
  "_id": {
    "$oid": "634d6133c1a50566f8151b0e"
  },
  "original_name": "Kirkmay",
  "official_name": "Crail",
  "county": "Fife",
  "country": "GB",
  "latitude": 56.2616531,
  "longitude": -2.6257847
},{
  "_id": {
    "$oid": "634d6133c1a50566f8151b0f"
  },
  "original_name": "Bendochy",
  "official_name": "Coupar Angus",
  "county": "Perth and Kinross",
  "country": "GB",
  "latitude": 56.5436339,
  "longitude": -3.2649099
},{
  "_id": {
    "$oid": "634d6133c1a50566f8151b10"
  },
  "original_name": "Carnoustie",
  "official_name": "Carnoustie",
  "county": "Angus Council",
  "country": "GB",
  "latitude": 56.502565,
  "longitude": -2.70325
},{
  "_id": {
    "$oid": "634d6133c1a50566f8151b11"
  },
  "original_name": "Leyland, Lancs.",
  "official_name": "Leyland",
  "county": "Lancashire",
  "country": "GB",
  "latitude": 53.697931,
  "longitude": -2.695478
},{
  "_id": {
    "$oid": "634d6134c1a50566f8151b12"
  },
  "original_name": "Dunbarney",
  "official_name": "Bridge of Earn",
  "county": "Perth and Kinross",
  "country": "GB",
  "latitude": 56.3505202,
  "longitude": -3.4091073
},{
  "_id": {
    "$oid": "634d6134c1a50566f8151b13"
  },
  "original_name": "South Rauceby, Lincs.",
  "official_name": "South Rauceby",
  "county": "Lincolnshire",
  "country": "GB",
  "latitude": 52.998887,
  "longitude": -0.474709
},{
  "_id": {
    "$oid": "634d6134c1a50566f8151b14"
  },
  "original_name": "Strathkinness",
  "official_name": "Strathkinness",
  "county": "Fife",
  "country": "GB",
  "latitude": 56.333636,
  "longitude": -2.877072
},{
  "_id": {
    "$oid": "634d6134c1a50566f8151b15"
  },
  "original_name": "Upper Magus",
  "official_name": "St Andrews",
  "county": "Fife",
  "country": "GB",
  "latitude": 56.322039,
  "longitude": -2.895108
},{
  "_id": {
    "$oid": "634d6134c1a50566f8151b16"
  },
  "original_name": "Skye",
  "official_name": null,
  "county": "Highland Council",
  "country": "GB",
  "latitude": 57.2736278,
  "longitude": -6.2155022
},{
  "_id": {
    "$oid": "634d6135c1a50566f8151b17"
  },
  "original_name": "Tipton, Staffs.",
  "official_name": "Tipton",
  "county": "West Midlands",
  "country": "GB",
  "latitude": 52.52625,
  "longitude": -2.066058
},{
  "_id": {
    "$oid": "634d6135c1a50566f8151b18"
  },
  "original_name": "Polmont",
  "official_name": "Polmont",
  "county": "Falkirk",
  "country": "GB",
  "latitude": 55.9906145,
  "longitude": -3.7073047
},{
  "_id": {
    "$oid": "634d6135c1a50566f8151b19"
  },
  "original_name": "Rattray",
  "official_name": "Rattray",
  "county": "Aberdeenshire",
  "country": "GB",
  "latitude": 57.59700100000001,
  "longitude": -1.857817
},{
  "_id": {
    "$oid": "634d6135c1a50566f8151b1a"
  },
  "original_name": "Auchencairn, UK",
  "official_name": "Auchencairn",
  "county": "Dumfries and Galloway",
  "country": "GB",
  "latitude": 54.84297600000001,
  "longitude": -3.8727919
},{
  "_id": {
    "$oid": "634d6135c1a50566f8151b1b"
  },
  "original_name": "Laurencekirk",
  "official_name": "Laurencekirk",
  "county": "Aberdeenshire",
  "country": "GB",
  "latitude": 56.831345,
  "longitude": -2.472517
},{
  "_id": {
    "$oid": "634d6135c1a50566f8151b1c"
  },
  "original_name": "Aberaeron, UK",
  "official_name": "Aberaeron",
  "county": "Ceredigion",
  "country": "GB",
  "latitude": 52.242793,
  "longitude": -4.2581619
},{
  "_id": {
    "$oid": "634d6136c1a50566f8151b1d"
  },
  "original_name": "Partick, Glasgow",
  "official_name": "Glasgow",
  "county": "Glasgow City",
  "country": "GB",
  "latitude": 55.87105940000001,
  "longitude": -4.3077507
},{
  "_id": {
    "$oid": "634d6136c1a50566f8151b1e"
  },
  "original_name": "Buckhaven",
  "official_name": "Buckhaven",
  "county": "Fife",
  "country": "GB",
  "latitude": 56.17450100000001,
  "longitude": -3.030789
},{
  "_id": {
    "$oid": "634d6136c1a50566f8151b1f"
  },
  "original_name": "Pitfirrane, Dunfermline",
  "official_name": "Crossford",
  "county": "Fife",
  "country": "GB",
  "latitude": 56.0637663,
  "longitude": -3.4955196
},{
  "_id": {
    "$oid": "634d6136c1a50566f8151b20"
  },
  "original_name": "Glenburnie",
  "official_name": "Kingston",
  "county": "Frontenac County",
  "country": "CA",
  "latitude": 44.320713,
  "longitude": -76.478758
},{
  "_id": {
    "$oid": "634d6136c1a50566f8151b21"
  },
  "original_name": "Half Morton",
  "official_name": "Canonbie",
  "county": "Dumfries and Galloway",
  "country": "GB",
  "latitude": 55.0576911,
  "longitude": -3.0689406
},{
  "_id": {
    "$oid": "634d6136c1a50566f8151b22"
  },
  "original_name": "Blackscroft, Dundee",
  "official_name": "Dundee",
  "county": "Dundee City Council",
  "country": "GB",
  "latitude": 56.4655989,
  "longitude": -2.9601497
},{
  "_id": {
    "$oid": "634d6137c1a50566f8151b23"
  },
  "original_name": "Chatham",
  "official_name": "Chatham",
  "county": "Medway",
  "country": "GB",
  "latitude": 51.380952,
  "longitude": 0.52213
},{
  "_id": {
    "$oid": "634d6137c1a50566f8151b24"
  },
  "original_name": "Congleton",
  "official_name": "Congleton",
  "county": "Cheshire East",
  "country": "GB",
  "latitude": 53.162856,
  "longitude": -2.218923
},{
  "_id": {
    "$oid": "634d6137c1a50566f8151b25"
  },
  "original_name": "Berington, Herefordshire",
  "official_name": "Burrington",
  "county": "Herefordshire",
  "country": "GB",
  "latitude": 52.342857,
  "longitude": -2.820081
},{
  "_id": {
    "$oid": "634d6137c1a50566f8151b26"
  },
  "original_name": "Yester Castle",
  "official_name": "Gifford",
  "county": "East Lothian Council",
  "country": "GB",
  "latitude": 55.8917393,
  "longitude": -2.7106367
},{
  "_id": {
    "$oid": "634d6137c1a50566f8151b27"
  },
  "original_name": "Paris, France",
  "official_name": "Paris",
  "county": "Paris",
  "country": "FR",
  "latitude": 48.856614,
  "longitude": 2.3522219
},{
  "_id": {
    "$oid": "634d6137c1a50566f8151b28"
  },
  "original_name": "Melville, Collessie",
  "official_name": "Collessie",
  "county": "Fife",
  "country": "GB",
  "latitude": 56.3061675,
  "longitude": -3.1556829
},{
  "_id": {
    "$oid": "634d6138c1a50566f8151b29"
  },
  "original_name": "Barony, Glasgow",
  "official_name": "Glasgow",
  "county": "Glasgow City",
  "country": "GB",
  "latitude": 55.8562234,
  "longitude": -4.1132949
},{
  "_id": {
    "$oid": "634d6138c1a50566f8151b2a"
  },
  "original_name": "Brecon",
  "official_name": "Brecon",
  "county": "Powys",
  "country": "GB",
  "latitude": 51.9489469,
  "longitude": -3.391463
},{
  "_id": {
    "$oid": "634d6138c1a50566f8151b2b"
  },
  "original_name": "Abdie, Newburgh",
  "official_name": "Newburgh",
  "county": "Fife",
  "country": "GB",
  "latitude": 56.350582,
  "longitude": -3.241471
},{
  "_id": {
    "$oid": "634d6138c1a50566f8151b2c"
  },
  "original_name": "Southam",
  "official_name": "Southam",
  "county": "Warwickshire",
  "country": "GB",
  "latitude": 52.2505049,
  "longitude": -1.389719
},{
  "_id": {
    "$oid": "634d6138c1a50566f8151b2d"
  },
  "original_name": "Longforgan",
  "official_name": "Longforgan",
  "county": "Perth and Kinross",
  "country": "GB",
  "latitude": 56.454791,
  "longitude": -3.119117
},{
  "_id": {
    "$oid": "634d6138c1a50566f8151b2e"
  },
  "original_name": "Cloag, Methven",
  "official_name": "Methven",
  "county": "Perth and Kinross",
  "country": "GB",
  "latitude": 56.4170453,
  "longitude": -3.5925338
},{
  "_id": {
    "$oid": "634d6139c1a50566f8151b2f"
  },
  "original_name": "Collace",
  "official_name": "Collace",
  "county": "Perth and Kinross",
  "country": "GB",
  "latitude": 56.47703199999999,
  "longitude": -3.2926859
},{
  "_id": {
    "$oid": "634d6139c1a50566f8151b30"
  },
  "original_name": "Dollar, UK",
  "official_name": "Dollar",
  "county": "Clackmannanshire",
  "country": "GB",
  "latitude": 56.163937,
  "longitude": -3.677553
},{
  "_id": {
    "$oid": "634d6139c1a50566f8151b31"
  },
  "original_name": "Dumfries",
  "official_name": "Dumfries",
  "county": "Dumfries and Galloway",
  "country": "GB",
  "latitude": 55.070859,
  "longitude": -3.60512
},{
  "_id": {
    "$oid": "634d6139c1a50566f8151b32"
  },
  "original_name": "Cape Town, South Africa",
  "official_name": "Cape Town",
  "county": "City of Cape Town Metropolitan Municipality",
  "country": "ZA",
  "latitude": -33.9248685,
  "longitude": 18.4240553
},{
  "_id": {
    "$oid": "634d6139c1a50566f8151b33"
  },
  "original_name": "Wallsend",
  "official_name": "Wallsend",
  "county": "Tyne and Wear",
  "country": "GB",
  "latitude": 54.991512,
  "longitude": -1.529375
},{
  "_id": {
    "$oid": "634d6139c1a50566f8151b34"
  },
  "original_name": "Newcastle upon Tyne",
  "official_name": "Newcastle upon Tyne",
  "county": "Tyne and Wear",
  "country": "GB",
  "latitude": 54.978252,
  "longitude": -1.61778
},{
  "_id": {
    "$oid": "634d613ac1a50566f8151b35"
  },
  "original_name": "Calverley",
  "official_name": "Calverley",
  "county": "West Yorkshire",
  "country": "GB",
  "latitude": 53.829915,
  "longitude": -1.684897
},{
  "_id": {
    "$oid": "634d613ac1a50566f8151b36"
  },
  "original_name": "Dunkeld, UK",
  "official_name": "Dunkeld",
  "county": "Perth and Kinross",
  "country": "GB",
  "latitude": 56.5676532,
  "longitude": -3.5862204
},{
  "_id": {
    "$oid": "634d613ac1a50566f8151b37"
  },
  "original_name": "Belfast",
  "official_name": "Belfast",
  "county": "Belfast",
  "country": "GB",
  "latitude": 54.59728500000001,
  "longitude": -5.93012
},{
  "_id": {
    "$oid": "634d613ac1a50566f8151b38"
  },
  "original_name": "Upper Laighwood, Clunie",
  "official_name": "Dunkeld",
  "county": "Perth and Kinross",
  "country": "GB",
  "latitude": 56.5948947,
  "longitude": -3.5086886
},{
  "_id": {
    "$oid": "634d613ac1a50566f8151b39"
  },
  "original_name": "Abernyte",
  "official_name": "Abernyte",
  "county": "Perth and Kinross",
  "country": "GB",
  "latitude": 56.467052,
  "longitude": -3.202333
},{
  "_id": {
    "$oid": "634d613ac1a50566f8151b3a"
  },
  "original_name": "Fife",
  "official_name": null,
  "county": "Fife",
  "country": "GB",
  "latitude": 56.2082078,
  "longitude": -3.1495175
},{
  "_id": {
    "$oid": "634d613bc1a50566f8151b3b"
  },
  "original_name": "Boarhills",
  "official_name": "Boarhills",
  "county": "Fife",
  "country": "GB",
  "latitude": 56.31737099999999,
  "longitude": -2.706116
},{
  "_id": {
    "$oid": "634d613bc1a50566f8151b3c"
  },
  "original_name": "Peebles",
  "official_name": "Peebles",
  "county": "Scottish Borders",
  "country": "GB",
  "latitude": 55.653071,
  "longitude": -3.193642
},{
  "_id": {
    "$oid": "634d613bc1a50566f8151b3d"
  },
  "original_name": "Rothiemay",
  "official_name": "Rothiemay",
  "county": "Moray",
  "country": "GB",
  "latitude": 57.523521,
  "longitude": -2.75357
},{
  "_id": {
    "$oid": "634d613bc1a50566f8151b3e"
  },
  "original_name": "Burrelton",
  "official_name": "Burrelton",
  "county": "Perth and Kinross",
  "country": "GB",
  "latitude": 56.52272,
  "longitude": -3.299728
},{
  "_id": {
    "$oid": "634d613bc1a50566f8151b3f"
  },
  "original_name": "Lochee/Dundee",
  "official_name": "Dundee",
  "county": "Dundee City Council",
  "country": "GB",
  "latitude": 56.4706264,
  "longitude": -3.0085609
},{
  "_id": {
    "$oid": "634d613bc1a50566f8151b40"
  },
  "original_name": "Inveresk",
  "official_name": "Inveresk",
  "county": "East Lothian Council",
  "country": "GB",
  "latitude": 55.9351823,
  "longitude": -3.043369
},{
  "_id": {
    "$oid": "634d613cc1a50566f8151b41"
  },
  "original_name": "Canterbury",
  "official_name": "Canterbury",
  "county": "Kent",
  "country": "GB",
  "latitude": 51.280233,
  "longitude": 1.0789089
},{
  "_id": {
    "$oid": "634d613cc1a50566f8151b42"
  },
  "original_name": "Edinburgh University ",
  "official_name": "Edinburgh",
  "county": "Edinburgh",
  "country": "GB",
  "latitude": 55.9445158,
  "longitude": -3.1892413
},{
  "_id": {
    "$oid": "634d613cc1a50566f8151b43"
  },
  "original_name": "Ayr Academy",
  "official_name": "Ayr",
  "county": "South Ayrshire Council",
  "country": "GB",
  "latitude": 55.4594935,
  "longitude": -4.6093422
},{
  "_id": {
    "$oid": "634d613cc1a50566f8151b44"
  },
  "original_name": "Dublin",
  "official_name": "Dublin",
  "county": null,
  "country": "IE",
  "latitude": 53.3498053,
  "longitude": -6.2603097
},{
  "_id": {
    "$oid": "634d613cc1a50566f8151b45"
  },
  "original_name": "Morvich",
  "official_name": "Morvich",
  "county": "Highland Council",
  "country": "GB",
  "latitude": 57.2350878,
  "longitude": -5.3809077
},{
  "_id": {
    "$oid": "634d613cc1a50566f8151b46"
  },
  "original_name": "Elgin Academy",
  "official_name": "Elgin",
  "county": "Moray",
  "country": "GB",
  "latitude": 57.653324,
  "longitude": -3.329074
},{
  "_id": {
    "$oid": "634d613cc1a50566f8151b47"
  },
  "original_name": "St Andrews, UK",
  "official_name": "St Andrews",
  "county": "Fife",
  "country": "GB",
  "latitude": 56.3397753,
  "longitude": -2.7967214
},{
  "_id": {
    "$oid": "634d613dc1a50566f8151b48"
  },
  "original_name": "Dollar",
  "official_name": "Dollar",
  "county": "Clackmannanshire",
  "country": "GB",
  "latitude": 56.163937,
  "longitude": -3.677553
},{
  "_id": {
    "$oid": "634d613dc1a50566f8151b49"
  },
  "original_name": "Dundee, St Andrews",
  "official_name": "St Andrews",
  "county": "Fife",
  "country": "GB",
  "latitude": 56.3397753,
  "longitude": -2.7967214
},{
  "_id": {
    "$oid": "634d613dc1a50566f8151b4a"
  },
  "original_name": "Crail",
  "official_name": "Crail",
  "county": "Fife",
  "country": "GB",
  "latitude": 56.260551,
  "longitude": -2.6275909
},{
  "_id": {
    "$oid": "634d613dc1a50566f8151b4b"
  },
  "original_name": "Eccles",
  "official_name": "Eccles",
  "county": "Greater Manchester",
  "country": "GB",
  "latitude": 53.4807151,
  "longitude": -2.3596801
},{
  "_id": {
    "$oid": "634d613dc1a50566f8151b4c"
  },
  "original_name": "West Bengal, India",
  "official_name": null,
  "county": null,
  "country": "IN",
  "latitude": 22.9867569,
  "longitude": 87.8549755
},{
  "_id": {
    "$oid": "634d613ec1a50566f8151b4d"
  },
  "original_name": "Kilmany",
  "official_name": "Kilmany",
  "county": "Fife",
  "country": "GB",
  "latitude": 56.386711,
  "longitude": -2.994058
},{
  "_id": {
    "$oid": "634d613ec1a50566f8151b4e"
  },
  "original_name": "Royal Bank of Scotland, Arbroath",
  "official_name": "Dundee",
  "county": "Angus Council",
  "country": "GB",
  "latitude": 56.5585199,
  "longitude": -2.5837
},{
  "_id": {
    "$oid": "634d613ec1a50566f8151b4f"
  },
  "original_name": "St Madoes",
  "official_name": "St Madoes",
  "county": "Perth and Kinross",
  "country": "GB",
  "latitude": 56.375014,
  "longitude": -3.3068719
},{
  "_id": {
    "$oid": "634d613ec1a50566f8151b50"
  },
  "original_name": "Melrose",
  "official_name": "Melrose",
  "county": "Scottish Borders",
  "country": "GB",
  "latitude": 55.598676,
  "longitude": -2.72191
},{
  "_id": {
    "$oid": "634d613ec1a50566f8151b51"
  },
  "original_name": "Longford",
  "official_name": "Longford",
  "county": null,
  "country": "IE",
  "latitude": 53.7276296,
  "longitude": -7.7932573
},{
  "_id": {
    "$oid": "634d613fc1a50566f8151b52"
  },
  "original_name": "Kemback",
  "official_name": "Kemback",
  "county": "Fife",
  "country": "GB",
  "latitude": 56.323175,
  "longitude": -2.942712
},{
  "_id": {
    "$oid": "634d613fc1a50566f8151b53"
  },
  "original_name": "Wooton under Edge",
  "official_name": "Wotton-under-Edge",
  "county": "Gloucestershire",
  "country": "GB",
  "latitude": 51.63802500000001,
  "longitude": -2.351248
},{
  "_id": {
    "$oid": "634d613fc1a50566f8151b54"
  },
  "original_name": "Collessie",
  "official_name": "Collessie",
  "county": "Fife",
  "country": "GB",
  "latitude": 56.3061675,
  "longitude": -3.1556829
},{
  "_id": {
    "$oid": "634d613fc1a50566f8151b55"
  },
  "original_name": "Low Valleyfield, Culross",
  "official_name": "Culross",
  "county": "Fife",
  "country": "GB",
  "latitude": 56.0551806,
  "longitude": -3.6298127
},{
  "_id": {
    "$oid": "634d613fc1a50566f8151b56"
  },
  "original_name": "University College, London",
  "official_name": "London",
  "county": "Greater London",
  "country": "GB",
  "latitude": 51.52455920000001,
  "longitude": -0.1340401
},{
  "_id": {
    "$oid": "634d613fc1a50566f8151b57"
  },
  "original_name": "Wick",
  "official_name": "Wick",
  "county": "Highland Council",
  "country": "GB",
  "latitude": 58.438936,
  "longitude": -3.093716
},{
  "_id": {
    "$oid": "634d6140c1a50566f8151b58"
  },
  "original_name": "Sorn, Ayrshire",
  "official_name": "Sorn",
  "county": "East Ayrshire Council",
  "country": "GB",
  "latitude": 55.50906490000001,
  "longitude": -4.2905171
},{
  "_id": {
    "$oid": "634d6140c1a50566f8151b59"
  },
  "original_name": "Chennai, India",
  "official_name": "Chennai",
  "county": "Chennai",
  "country": "IN",
  "latitude": 13.0826802,
  "longitude": 80.2707184
},{
  "_id": {
    "$oid": "634d6140c1a50566f8151b5a"
  },
  "original_name": "Kincaple",
  "official_name": "Kincaple",
  "county": "Fife",
  "country": "GB",
  "latitude": 56.35263399999999,
  "longitude": -2.872633
},{
  "_id": {
    "$oid": "634d6140c1a50566f8151b5b"
  },
  "original_name": "Portmoak Church",
  "official_name": "Milnathort",
  "county": "Perth and Kinross",
  "country": "GB",
  "latitude": 56.2262127,
  "longitude": -3.4203328
},{
  "_id": {
    "$oid": "634d6140c1a50566f8151b5c"
  },
  "original_name": "Castle Donnington",
  "official_name": "Castle Donington",
  "county": "Leicestershire",
  "country": "GB",
  "latitude": 52.845016,
  "longitude": -1.3373001
},{
  "_id": {
    "$oid": "634d6140c1a50566f8151b5d"
  },
  "original_name": "Caerlaverock",
  "official_name": "Dumfries",
  "county": "Dumfries and Galloway",
  "country": "GB",
  "latitude": 54.9756543,
  "longitude": -3.5240108
},{
  "_id": {
    "$oid": "634d6141c1a50566f8151b5e"
  },
  "original_name": "Glenlyon",
  "official_name": "Glenlyon",
  "county": "Perth and Kinross",
  "country": "GB",
  "latitude": 56.601466,
  "longitude": -4.072875
},{
  "_id": {
    "$oid": "634d6141c1a50566f8151b5f"
  },
  "original_name": "Colchester",
  "official_name": "Colchester",
  "county": "Essex",
  "country": "GB",
  "latitude": 51.895927,
  "longitude": 0.8918740000000001
},{
  "_id": {
    "$oid": "634d6141c1a50566f8151b60"
  },
  "original_name": "Greenside Nursery, St Andrews",
  "official_name": "St Andrews",
  "county": "Fife",
  "country": "GB",
  "latitude": 56.3373561,
  "longitude": -2.792106
},{
  "_id": {
    "$oid": "634d6141c1a50566f8151b61"
  },
  "original_name": "Maldon, Essex",
  "official_name": "Maldon",
  "county": "Essex",
  "country": "GB",
  "latitude": 51.73180499999999,
  "longitude": 0.6714479999999999
},{
  "_id": {
    "$oid": "634d6141c1a50566f8151b62"
  },
  "original_name": "Dundee West station",
  "official_name": "Dundee",
  "county": "Dundee City Council",
  "country": "GB",
  "latitude": 56.462018,
  "longitude": -2.970721
},{
  "_id": {
    "$oid": "634d6141c1a50566f8151b63"
  },
  "original_name": "Aberdeen, UK",
  "official_name": "Aberdeen",
  "county": "Aberdeen City",
  "country": "GB",
  "latitude": 57.1498891,
  "longitude": -2.0937528
},{
  "_id": {
    "$oid": "634d6142c1a50566f8151b64"
  },
  "original_name": "Fordoun",
  "official_name": "Fordoun",
  "county": "Aberdeenshire",
  "country": "GB",
  "latitude": 56.876579,
  "longitude": -2.412157
},{
  "_id": {
    "$oid": "634d6142c1a50566f8151b65"
  },
  "original_name": "Yoxford",
  "official_name": "Yoxford",
  "county": "Suffolk",
  "country": "GB",
  "latitude": 52.265793,
  "longitude": 1.510936
},{
  "_id": {
    "$oid": "634d6142c1a50566f8151b66"
  },
  "original_name": "Dalkeith",
  "official_name": "Dalkeith",
  "county": "Midlothian",
  "country": "GB",
  "latitude": 55.89311799999999,
  "longitude": -3.066606
},{
  "_id": {
    "$oid": "634d6142c1a50566f8151b67"
  },
  "original_name": "Kinross",
  "official_name": "Kinross",
  "county": "Perth and Kinross",
  "country": "GB",
  "latitude": 56.206132,
  "longitude": -3.4229
},{
  "_id": {
    "$oid": "634d6142c1a50566f8151b68"
  },
  "original_name": "Falkland",
  "official_name": "Falkland",
  "county": "Fife",
  "country": "GB",
  "latitude": 56.256285,
  "longitude": -3.206429
},{
  "_id": {
    "$oid": "634d6143c1a50566f8151b69"
  },
  "original_name": "Grange",
  "official_name": "Swindon",
  "county": "Swindon",
  "country": "GB",
  "latitude": 51.5704882,
  "longitude": -1.748575
},{
  "_id": {
    "$oid": "634d6143c1a50566f8151b6a"
  },
  "original_name": "Branxton",
  "official_name": "Branxton",
  "county": "Northumberland",
  "country": "GB",
  "latitude": 55.629143,
  "longitude": -2.1706
},{
  "_id": {
    "$oid": "634d6143c1a50566f8151b6b"
  },
  "original_name": "Airth",
  "official_name": "Airth",
  "county": "Falkirk",
  "country": "GB",
  "latitude": 56.069301,
  "longitude": -3.770963
},{
  "_id": {
    "$oid": "634d6143c1a50566f8151b6c"
  },
  "original_name": "Morven",
  "official_name": "Ballater",
  "county": "Aberdeenshire",
  "country": "GB",
  "latitude": 57.1227777,
  "longitude": -3.0310277
},{
  "_id": {
    "$oid": "634d6143c1a50566f8151b6d"
  },
  "original_name": "Lathones",
  "official_name": "Lathones",
  "county": "Fife",
  "country": "GB",
  "latitude": 56.26995,
  "longitude": -2.848799
},{
  "_id": {
    "$oid": "634d6144c1a50566f8151b6e"
  },
  "original_name": "Gibraltar",
  "official_name": null,
  "county": null,
  "country": "GI",
  "latitude": 36.140751,
  "longitude": -5.353585
},{
  "_id": {
    "$oid": "634d6144c1a50566f8151b6f"
  },
  "original_name": "Blackness, Dundee",
  "official_name": "Dundee",
  "county": "Dundee City Council",
  "country": "GB",
  "latitude": 56.462018,
  "longitude": -2.970721
},{
  "_id": {
    "$oid": "634d6144c1a50566f8151b70"
  },
  "original_name": "Minto",
  "official_name": "Minto",
  "county": "Scottish Borders",
  "country": "GB",
  "latitude": 55.477061,
  "longitude": -2.685969
},{
  "_id": {
    "$oid": "634d6144c1a50566f8151b71"
  },
  "original_name": "Strath",
  "official_name": "Strath",
  "county": "Highland Council",
  "country": "GB",
  "latitude": 57.734267,
  "longitude": -5.703512
},{
  "_id": {
    "$oid": "634d6144c1a50566f8151b72"
  },
  "original_name": "Weem",
  "official_name": "Weem",
  "county": "Perth and Kinross",
  "country": "GB",
  "latitude": 56.6257344,
  "longitude": -3.8861102
},{
  "_id": {
    "$oid": "634d6145c1a50566f8151b73"
  },
  "original_name": "Errol, UK",
  "official_name": "Errol",
  "county": "Perth and Kinross",
  "country": "GB",
  "latitude": 56.391946,
  "longitude": -3.2127279
},{
  "_id": {
    "$oid": "634d6145c1a50566f8151b74"
  },
  "original_name": "Dyke",
  "official_name": "Dyke",
  "county": "Moray",
  "country": "GB",
  "latitude": 57.60511999999999,
  "longitude": -3.6955231
},{
  "_id": {
    "$oid": "634d6145c1a50566f8151b75"
  },
  "original_name": "Calne",
  "official_name": "Calne",
  "county": "Wiltshire",
  "country": "GB",
  "latitude": 51.43933,
  "longitude": -2.003884
},{
  "_id": {
    "$oid": "634d6145c1a50566f8151b76"
  },
  "original_name": "Dairsie",
  "official_name": "Dairsie",
  "county": "Fife",
  "country": "GB",
  "latitude": 56.34660599999999,
  "longitude": -2.9480511
},{
  "_id": {
    "$oid": "634d6145c1a50566f8151b77"
  },
  "original_name": "Dundee Grammar School",
  "official_name": "Dundee",
  "county": "Dundee City Council",
  "country": "GB",
  "latitude": 56.462018,
  "longitude": -2.970721
},{
  "_id": {
    "$oid": "634d6146c1a50566f8151b78"
  },
  "original_name": "Eccles, Lancashire",
  "official_name": "Eccles",
  "county": "Greater Manchester",
  "country": "GB",
  "latitude": 53.4807151,
  "longitude": -2.3596801
},{
  "_id": {
    "$oid": "634d6146c1a50566f8151b79"
  },
  "original_name": "Kington",
  "official_name": "Kington",
  "county": "Herefordshire",
  "country": "GB",
  "latitude": 52.203742,
  "longitude": -3.029048
},{
  "_id": {
    "$oid": "634d6146c1a50566f8151b7a"
  },
  "original_name": "West Point, Virginia, USA",
  "official_name": "West Point",
  "county": "King William County",
  "country": "US",
  "latitude": 37.53153349999999,
  "longitude": -76.7963504
},{
  "_id": {
    "$oid": "634d6146c1a50566f8151b7b"
  },
  "original_name": "Moonzie",
  "official_name": "Moonzie",
  "county": "Fife",
  "country": "GB",
  "latitude": 56.347654,
  "longitude": -3.068096
},{
  "_id": {
    "$oid": "634d6146c1a50566f8151b7c"
  },
  "original_name": "St Pancras",
  "official_name": "London",
  "county": "Greater London",
  "country": "GB",
  "latitude": 51.531427,
  "longitude": -0.126133
},{
  "_id": {
    "$oid": "634d6147c1a50566f8151b7d"
  },
  "original_name": "Daily Chronicle, London",
  "official_name": "London",
  "county": "Greater London",
  "country": "GB",
  "latitude": 51.5072178,
  "longitude": -0.1275862
},{
  "_id": {
    "$oid": "634d6147c1a50566f8151b7e"
  },
  "original_name": "Ednam",
  "official_name": "Ednam",
  "county": "Scottish Borders",
  "country": "GB",
  "latitude": 55.62774599999999,
  "longitude": -2.417497
},{
  "_id": {
    "$oid": "634d6147c1a50566f8151b7f"
  },
  "original_name": "Lochee U.P. School",
  "official_name": "Dundee",
  "county": "Dundee City Council",
  "country": "GB",
  "latitude": 56.4706264,
  "longitude": -3.0085609
},{
  "_id": {
    "$oid": "634d6147c1a50566f8151b80"
  },
  "original_name": "parish of Lesmahagow",
  "official_name": "Lesmahagow",
  "county": "South Lanarkshire",
  "country": "GB",
  "latitude": 55.637634,
  "longitude": -3.88657
},{
  "_id": {
    "$oid": "634d6147c1a50566f8151b81"
  },
  "original_name": "Anstruther Wester",
  "official_name": "Anstruther",
  "county": "Fife",
  "country": "GB",
  "latitude": 56.22298000000001,
  "longitude": -2.700539
},{
  "_id": {
    "$oid": "634d6147c1a50566f8151b82"
  },
  "original_name": "Hempriggs, UK",
  "official_name": "Hempriggs",
  "county": "Moray",
  "country": "GB",
  "latitude": 57.655143,
  "longitude": -3.507142
},{
  "_id": {
    "$oid": "634d6148c1a50566f8151b83"
  },
  "original_name": "Invergowrie",
  "official_name": "Invergowrie",
  "county": "Perth and Kinross",
  "country": "GB",
  "latitude": 56.46075,
  "longitude": -3.061716
},{
  "_id": {
    "$oid": "634d6148c1a50566f8151b84"
  },
  "original_name": "Liff",
  "official_name": "Liff",
  "county": "Angus Council",
  "country": "GB",
  "latitude": 56.48535,
  "longitude": -3.083345
},{
  "_id": {
    "$oid": "634d6148c1a50566f8151b85"
  },
  "original_name": "Kinnoul",
  "official_name": "Perth",
  "county": "Perth and Kinross",
  "country": "GB",
  "latitude": 56.4024869,
  "longitude": -3.4178109
},{
  "_id": {
    "$oid": "634d6148c1a50566f8151b86"
  },
  "original_name": "Dull parish",
  "official_name": "Dull",
  "county": "Perth and Kinross",
  "country": "GB",
  "latitude": 56.620816,
  "longitude": -3.943927
},{
  "_id": {
    "$oid": "634d6148c1a50566f8151b87"
  },
  "original_name": "Newhaven",
  "official_name": "Newhaven",
  "county": "East Sussex",
  "country": "GB",
  "latitude": 50.79307000000001,
  "longitude": 0.045574
},{
  "_id": {
    "$oid": "634d6149c1a50566f8151b88"
  },
  "original_name": "Stevenston",
  "official_name": "Stevenston",
  "county": "North Ayrshire Council",
  "country": "GB",
  "latitude": 55.641817,
  "longitude": -4.760409999999999
},{
  "_id": {
    "$oid": "634d6149c1a50566f8151b89"
  },
  "original_name": "Weem, Aberfeldy",
  "official_name": "Weem",
  "county": "Perth and Kinross",
  "country": "GB",
  "latitude": 56.6257344,
  "longitude": -3.8861102
},{
  "_id": {
    "$oid": "634d6149c1a50566f8151b8a"
  },
  "original_name": "Kinnoull",
  "official_name": "Perth",
  "county": "Perth and Kinross",
  "country": "GB",
  "latitude": 56.4024869,
  "longitude": -3.4178109
},{
  "_id": {
    "$oid": "634d6149c1a50566f8151b8b"
  },
  "original_name": "Fairford, Gloucs.",
  "official_name": "Fairford",
  "county": "Gloucestershire",
  "country": "GB",
  "latitude": 51.70753699999999,
  "longitude": -1.785135
},{
  "_id": {
    "$oid": "634d6149c1a50566f8151b8c"
  },
  "original_name": "Crawfordjohn, UK",
  "official_name": "Crawfordjohn",
  "county": "South Lanarkshire",
  "country": "GB",
  "latitude": 55.494754,
  "longitude": -3.775164
},{
  "_id": {
    "$oid": "634d6149c1a50566f8151b8d"
  },
  "original_name": "Abernethy",
  "official_name": "Abernethy",
  "county": "Perth and Kinross",
  "country": "GB",
  "latitude": 56.332014,
  "longitude": -3.313714
},{
  "_id": {
    "$oid": "634d614ac1a50566f8151b8e"
  },
  "original_name": "Caputh",
  "official_name": "Schwielowsee",
  "county": null,
  "country": "DE",
  "latitude": 52.3356762,
  "longitude": 12.9861248
},{
  "_id": {
    "$oid": "634d614ac1a50566f8151b8f"
  },
  "original_name": "Stonehouse, Devon",
  "official_name": "Plymouth",
  "county": "Plymouth",
  "country": "GB",
  "latitude": 50.3696504,
  "longitude": -4.1563595
},{
  "_id": {
    "$oid": "634d614ac1a50566f8151b90"
  },
  "original_name": "Tayport",
  "official_name": "Tayport",
  "county": "Fife",
  "country": "GB",
  "latitude": 56.447996,
  "longitude": -2.880912
},{
  "_id": {
    "$oid": "634d614ac1a50566f8151b91"
  },
  "original_name": "Southwark",
  "official_name": "London",
  "county": "Greater London",
  "country": "GB",
  "latitude": 51.502781,
  "longitude": -0.087738
},{
  "_id": {
    "$oid": "634d614ac1a50566f8151b92"
  },
  "original_name": "Mordington, UK",
  "official_name": "Mordrington",
  "county": "Scottish Borders",
  "country": "GB",
  "latitude": 55.797863,
  "longitude": -2.085961
},{
  "_id": {
    "$oid": "634d614ac1a50566f8151b93"
  },
  "original_name": "Hillbank, Dundee",
  "official_name": "Dundee",
  "county": "Dundee City Council",
  "country": "GB",
  "latitude": 56.4705857,
  "longitude": -2.9661897
},{
  "_id": {
    "$oid": "634d614bc1a50566f8151b94"
  },
  "original_name": "Tongue",
  "official_name": "Tongue",
  "county": "Highland Council",
  "country": "GB",
  "latitude": 58.4761469,
  "longitude": -4.417472
},{
  "_id": {
    "$oid": "634d614bc1a50566f8151b95"
  },
  "original_name": "Wistonslow, Shropshire",
  "official_name": "Wistanstow",
  "county": "Shropshire",
  "country": "GB",
  "latitude": 52.467484,
  "longitude": -2.834703
},{
  "_id": {
    "$oid": "634d614bc1a50566f8151b96"
  },
  "original_name": "Tinwald",
  "official_name": "Tinwald",
  "county": "Dumfries and Galloway",
  "country": "GB",
  "latitude": 55.117589,
  "longitude": -3.562677
},{
  "_id": {
    "$oid": "634d614bc1a50566f8151b97"
  },
  "original_name": "Birmingham",
  "official_name": "Birmingham",
  "county": "West Midlands",
  "country": "GB",
  "latitude": 52.48624299999999,
  "longitude": -1.890401
},{
  "_id": {
    "$oid": "634d614bc1a50566f8151b98"
  },
  "original_name": "Lintrathen",
  "official_name": "Kirriemuir",
  "county": "Angus Council",
  "country": "GB",
  "latitude": 56.6795807,
  "longitude": -3.1820104
},{
  "_id": {
    "$oid": "634d614cc1a50566f8151b99"
  },
  "original_name": "Belford, Northumberland",
  "official_name": "Belford",
  "county": "Northumberland",
  "country": "GB",
  "latitude": 55.59933100000001,
  "longitude": -1.828824
},{
  "_id": {
    "$oid": "634d614cc1a50566f8151b9a"
  },
  "original_name": "Cairneyhill, Carnock",
  "official_name": "Carnock",
  "county": "Fife",
  "country": "GB",
  "latitude": 56.0848709,
  "longitude": -3.536472
},{
  "_id": {
    "$oid": "634d614cc1a50566f8151b9b"
  },
  "original_name": "Tyrie, Aberdeenshire",
  "official_name": "Tyrie",
  "county": "Aberdeenshire",
  "country": "GB",
  "latitude": 57.65790999999999,
  "longitude": -2.1056849
},{
  "_id": {
    "$oid": "634d614cc1a50566f8151b9c"
  },
  "original_name": "Dunino",
  "official_name": "Dunino",
  "county": "Fife",
  "country": "GB",
  "latitude": 56.287716,
  "longitude": -2.743701
},{
  "_id": {
    "$oid": "634d614cc1a50566f8151b9d"
  },
  "original_name": "Chittagong, India",
  "official_name": "Chattogram",
  "county": "Chittagong District",
  "country": "BD",
  "latitude": 22.356851,
  "longitude": 91.7831819
},{
  "_id": {
    "$oid": "634d614cc1a50566f8151b9e"
  },
  "original_name": "Newent,  Gloucs.",
  "official_name": "Newent",
  "county": "Gloucestershire",
  "country": "GB",
  "latitude": 51.929281,
  "longitude": -2.404578
},{
  "_id": {
    "$oid": "634d614dc1a50566f8151b9f"
  },
  "original_name": "Nairn",
  "official_name": "Nairn",
  "county": "Highland Council",
  "country": "GB",
  "latitude": 57.58642200000001,
  "longitude": -3.868475
},{
  "_id": {
    "$oid": "634d614dc1a50566f8151ba0"
  },
  "original_name": "Argyll",
  "official_name": null,
  "county": "Argyll and Bute Council",
  "country": "GB",
  "latitude": 56.4006214,
  "longitude": -5.480748
},{
  "_id": {
    "$oid": "634d614dc1a50566f8151ba1"
  },
  "original_name": "Kilwinning",
  "official_name": "Kilwinning",
  "county": "North Ayrshire Council",
  "country": "GB",
  "latitude": 55.65591999999999,
  "longitude": -4.703117000000001
},{
  "_id": {
    "$oid": "634d614dc1a50566f8151ba2"
  },
  "original_name": "Moray",
  "official_name": null,
  "county": "Moray",
  "country": "GB",
  "latitude": 57.64984759999999,
  "longitude": -3.3168039
},{
  "_id": {
    "$oid": "634d614dc1a50566f8151ba3"
  },
  "original_name": "Banchory",
  "official_name": "Banchory",
  "county": "Aberdeenshire",
  "country": "GB",
  "latitude": 57.053856,
  "longitude": -2.49096
},{
  "_id": {
    "$oid": "634d614dc1a50566f8151ba4"
  },
  "original_name": "Blinkbonny, Carnbee",
  "official_name": "Carnbee",
  "county": "Fife",
  "country": "GB",
  "latitude": 56.249607,
  "longitude": -2.761444
},{
  "_id": {
    "$oid": "634d614ec1a50566f8151ba5"
  },
  "original_name": "Tannadice",
  "official_name": "Dundee",
  "county": "Dundee City Council",
  "country": "GB",
  "latitude": 56.47470819999999,
  "longitude": -2.9690002
},{
  "_id": {
    "$oid": "634d614ec1a50566f8151ba6"
  },
  "original_name": "Bangour",
  "official_name": "Wester Dechmont",
  "county": "West Lothian",
  "country": "GB",
  "latitude": 55.9202425,
  "longitude": -3.5531866
},{
  "_id": {
    "$oid": "634d614ec1a50566f8151ba7"
  },
  "original_name": "Ormskirk",
  "official_name": "Ormskirk",
  "county": "Lancashire",
  "country": "GB",
  "latitude": 53.568935,
  "longitude": -2.885057
},{
  "_id": {
    "$oid": "634d614ec1a50566f8151ba8"
  },
  "original_name": "Moneydie",
  "official_name": "Moneydie",
  "county": "Perth and Kinross",
  "country": "GB",
  "latitude": 56.44832,
  "longitude": -3.514881
},{
  "_id": {
    "$oid": "634d614ec1a50566f8151ba9"
  },
  "original_name": "Daviot",
  "official_name": "Daviot",
  "county": "Aberdeenshire",
  "country": "GB",
  "latitude": 57.3425791,
  "longitude": -2.4162511
},{
  "_id": {
    "$oid": "634d614ec1a50566f8151baa"
  },
  "original_name": "Kelso, UK",
  "official_name": "Kelso",
  "county": "Scottish Borders",
  "country": "GB",
  "latitude": 55.600029,
  "longitude": -2.432207
},{
  "_id": {
    "$oid": "634d614fc1a50566f8151bab"
  },
  "original_name": "1 Belford Park, Edinburgh",
  "official_name": "Edinburgh",
  "county": "Edinburgh",
  "country": "GB",
  "latitude": 55.95076599999999,
  "longitude": -3.2252322
},{
  "_id": {
    "$oid": "634d614fc1a50566f8151bac"
  },
  "original_name": "Liskeard",
  "official_name": "Liskeard",
  "county": "Cornwall",
  "country": "GB",
  "latitude": 50.45552,
  "longitude": -4.464719
},{
  "_id": {
    "$oid": "634d614fc1a50566f8151bad"
  },
  "original_name": "Ilton, Somerset",
  "official_name": "Ilton",
  "county": "Somerset",
  "country": "GB",
  "latitude": 50.9539977,
  "longitude": -2.9236795
},{
  "_id": {
    "$oid": "634d614fc1a50566f8151bae"
  },
  "original_name": "Cushnie",
  "official_name": "Cushnie",
  "county": "Aberdeenshire",
  "country": "GB",
  "latitude": 57.17778,
  "longitude": -2.79595
},{
  "_id": {
    "$oid": "634d614fc1a50566f8151baf"
  },
  "original_name": "Star",
  "official_name": "Star",
  "county": "Fife",
  "country": "GB",
  "latitude": 56.217282,
  "longitude": -3.108838
},{
  "_id": {
    "$oid": "634d614fc1a50566f8151bb0"
  },
  "original_name": "Edinburgh University",
  "official_name": "Edinburgh",
  "county": "Edinburgh",
  "country": "GB",
  "latitude": 55.9445158,
  "longitude": -3.1892413
},{
  "_id": {
    "$oid": "634d6150c1a50566f8151bb1"
  },
  "original_name": "Rhynd",
  "official_name": "Rhynd",
  "county": "Perth and Kinross",
  "country": "GB",
  "latitude": 56.365251,
  "longitude": -3.365732
},{
  "_id": {
    "$oid": "634d6150c1a50566f8151bb2"
  },
  "original_name": "Tarbolton",
  "official_name": "Tarbolton",
  "county": "South Ayrshire Council",
  "country": "GB",
  "latitude": 55.51224,
  "longitude": -4.488156
},{
  "_id": {
    "$oid": "634d6150c1a50566f8151bb3"
  },
  "original_name": "Little Dunkeld",
  "official_name": "Little Dunkeld",
  "county": "Perth and Kinross",
  "country": "GB",
  "latitude": 56.560917,
  "longitude": -3.584703
},{
  "_id": {
    "$oid": "634d6150c1a50566f8151bb4"
  },
  "original_name": "Carmunnock",
  "official_name": "Glasgow",
  "county": "Glasgow City",
  "country": "GB",
  "latitude": 55.790975,
  "longitude": -4.236131
},{
  "_id": {
    "$oid": "634d6150c1a50566f8151bb5"
  },
  "original_name": "Kolkata, India",
  "official_name": "Kolkata",
  "county": null,
  "country": "IN",
  "latitude": 22.572646,
  "longitude": 88.36389500000001
},{
  "_id": {
    "$oid": "634d6151c1a50566f8151bb6"
  },
  "original_name": "Finchley",
  "official_name": "London",
  "county": "Greater London",
  "country": "GB",
  "latitude": 51.5971434,
  "longitude": -0.1979547
},{
  "_id": {
    "$oid": "634d6151c1a50566f8151bb7"
  },
  "original_name": "Bangalore",
  "official_name": "Bengaluru",
  "county": "Bangalore Urban",
  "country": "IN",
  "latitude": 12.9715987,
  "longitude": 77.5945627
},{
  "_id": {
    "$oid": "634d6151c1a50566f8151bb8"
  },
  "original_name": "Rait, Kilspindie",
  "official_name": "Rait",
  "county": "Perth and Kinross",
  "country": "GB",
  "latitude": 56.42610819999999,
  "longitude": -3.2542156
},{
  "_id": {
    "$oid": "634d6151c1a50566f8151bb9"
  },
  "original_name": "Harrington",
  "official_name": "Harrington",
  "county": "Northamptonshire",
  "country": "GB",
  "latitude": 52.412133,
  "longitude": -0.8656708999999999
},{
  "_id": {
    "$oid": "634d6151c1a50566f8151bba"
  },
  "original_name": "St Pauls, Dundee",
  "official_name": "Dundee",
  "county": "Dundee City Council",
  "country": "GB",
  "latitude": 56.4611732,
  "longitude": -2.9683033
},{
  "_id": {
    "$oid": "634d6151c1a50566f8151bbb"
  },
  "original_name": "Drumrusk, Ireland",
  "official_name": null,
  "county": null,
  "country": "IE",
  "latitude": 52.2201233,
  "longitude": -7.0084133
},{
  "_id": {
    "$oid": "634d6152c1a50566f8151bbc"
  },
  "original_name": "Milnathort",
  "official_name": "Milnathort",
  "county": "Perth and Kinross",
  "country": "GB",
  "latitude": 56.22665,
  "longitude": -3.421039
},{
  "_id": {
    "$oid": "634d6152c1a50566f8151bbd"
  },
  "original_name": "Biggar",
  "official_name": "Biggar",
  "county": "South Lanarkshire",
  "country": "GB",
  "latitude": 55.623396,
  "longitude": -3.523964
},{
  "_id": {
    "$oid": "634d6152c1a50566f8151bbe"
  },
  "original_name": "Bonhard, Arbroath",
  "official_name": "Arbroath",
  "county": "Angus Council",
  "country": "GB",
  "latitude": 56.55369109999999,
  "longitude": -2.660062
},{
  "_id": {
    "$oid": "634d6152c1a50566f8151bbf"
  },
  "original_name": "Alford",
  "official_name": "Alford",
  "county": "Lincolnshire",
  "country": "GB",
  "latitude": 53.263271,
  "longitude": 0.183359
},{
  "_id": {
    "$oid": "634d6152c1a50566f8151bc0"
  },
  "original_name": "Fowlis Wester",
  "official_name": "Fowlis Wester",
  "county": "Perth and Kinross",
  "country": "GB",
  "latitude": 56.397504,
  "longitude": -3.737936
},{
  "_id": {
    "$oid": "634d6152c1a50566f8151bc1"
  },
  "original_name": "Kells",
  "official_name": "Kells",
  "county": null,
  "country": "IE",
  "latitude": 53.72718030000001,
  "longitude": -6.876972299999999
},{
  "_id": {
    "$oid": "634d6153c1a50566f8151bc2"
  },
  "original_name": "Hyderabad, India",
  "official_name": "Hyderabad",
  "county": null,
  "country": "IN",
  "latitude": 17.385044,
  "longitude": 78.486671
},{
  "_id": {
    "$oid": "634d6153c1a50566f8151bc3"
  },
  "original_name": "Urrard",
  "official_name": "Killiecrankie",
  "county": "Perth and Kinross",
  "country": "GB",
  "latitude": 56.7533723,
  "longitude": -3.7981258
},{
  "_id": {
    "$oid": "634d6153c1a50566f8151bc4"
  },
  "original_name": "Kingsland, UK",
  "official_name": "London",
  "county": "Greater London",
  "country": "GB",
  "latitude": 51.5481846,
  "longitude": -0.05471409999999999
},{
  "_id": {
    "$oid": "634d6153c1a50566f8151bc5"
  },
  "original_name": "Buckland Brewer, Devon",
  "official_name": "Buckland Brewer",
  "county": "Devon",
  "country": "GB",
  "latitude": 50.9650791,
  "longitude": -4.2523219
},{
  "_id": {
    "$oid": "634d6153c1a50566f8151bc6"
  },
  "original_name": "53 Woodhead St., Dunfermline",
  "official_name": "Valleyfield",
  "county": "Fife",
  "country": "GB",
  "latitude": 56.0608479,
  "longitude": -3.6043428
},{
  "_id": {
    "$oid": "634d6154c1a50566f8151bc7"
  },
  "original_name": "Kelton",
  "official_name": "Gelston",
  "county": "Dumfries and Galloway",
  "country": "GB",
  "latitude": 54.909096,
  "longitude": -3.916221
},{
  "_id": {
    "$oid": "634d6154c1a50566f8151bc8"
  },
  "original_name": "Bourtie",
  "official_name": "Inverurie",
  "county": "Aberdeenshire",
  "country": "GB",
  "latitude": 57.31405660000001,
  "longitude": -2.3322269
},{
  "_id": {
    "$oid": "634d6154c1a50566f8151bc9"
  },
  "original_name": "Ratho Byres",
  "official_name": "Ratho",
  "county": "Edinburgh",
  "country": "GB",
  "latitude": 55.921772,
  "longitude": -3.383983
},{
  "_id": {
    "$oid": "634d6154c1a50566f8151bca"
  },
  "original_name": "Inverness, UK",
  "official_name": "Inverness",
  "county": "Highland Council",
  "country": "GB",
  "latitude": 57.477773,
  "longitude": -4.224721
},{
  "_id": {
    "$oid": "634d6154c1a50566f8151bcb"
  },
  "original_name": "Arngask",
  "official_name": "Arngask",
  "county": "Perth and Kinross",
  "country": "GB",
  "latitude": 56.28391,
  "longitude": -3.38696
},{
  "_id": {
    "$oid": "634d6154c1a50566f8151bcc"
  },
  "original_name": "Irongray",
  "official_name": "Irongray",
  "county": "Dumfries and Galloway",
  "country": "GB",
  "latitude": 55.089772,
  "longitude": -3.73898
},{
  "_id": {
    "$oid": "634d6155c1a50566f8151bcd"
  },
  "original_name": "Cadogan",
  "official_name": "London",
  "county": "Greater London",
  "country": "GB",
  "latitude": 51.491443,
  "longitude": -0.1593924
},{
  "_id": {
    "$oid": "634d6155c1a50566f8151bce"
  },
  "original_name": "Kinnettles",
  "official_name": "Kinnettles",
  "county": "Angus Council",
  "country": "GB",
  "latitude": 56.610496,
  "longitude": -2.939151
},{
  "_id": {
    "$oid": "634d6155c1a50566f8151bcf"
  },
  "original_name": "Newington near Cupar",
  "official_name": "Cupar",
  "county": "Fife",
  "country": "GB",
  "latitude": 56.320235,
  "longitude": -3.010137
},{
  "_id": {
    "$oid": "634d6155c1a50566f8151bd0"
  },
  "original_name": "St Omer",
  "official_name": "Saint-Omer",
  "county": "Pas-de-Calais",
  "country": "FR",
  "latitude": 50.750115,
  "longitude": 2.252208
},{
  "_id": {
    "$oid": "634d6155c1a50566f8151bd1"
  },
  "original_name": "Moscow",
  "official_name": "Moscow",
  "county": "Moscow",
  "country": "RU",
  "latitude": 55.755826,
  "longitude": 37.6173
},{
  "_id": {
    "$oid": "634d6155c1a50566f8151bd2"
  },
  "original_name": "Milford on Sea, UK",
  "official_name": "Milford on Sea",
  "county": "Hampshire",
  "country": "GB",
  "latitude": 50.725731,
  "longitude": -1.5897619
},{
  "_id": {
    "$oid": "634d6156c1a50566f8151bd3"
  },
  "original_name": "Castle Comer",
  "official_name": "Castlecomer",
  "county": null,
  "country": "IE",
  "latitude": 52.805467,
  "longitude": -7.209545400000001
},{
  "_id": {
    "$oid": "634d6156c1a50566f8151bd4"
  },
  "original_name": "Abernethy, Inverness-shire",
  "official_name": "Abernethy",
  "county": "Perth and Kinross",
  "country": "GB",
  "latitude": 56.332014,
  "longitude": -3.313714
},{
  "_id": {
    "$oid": "634d6156c1a50566f8151bd5"
  },
  "original_name": "Annan",
  "official_name": "Annan",
  "county": "Dumfries and Galloway",
  "country": "GB",
  "latitude": 54.990246,
  "longitude": -3.259773
},{
  "_id": {
    "$oid": "634d6156c1a50566f8151bd6"
  },
  "original_name": "Chelsea, London",
  "official_name": "London",
  "county": "Greater London",
  "country": "GB",
  "latitude": 51.4869429,
  "longitude": -0.170037
},{
  "_id": {
    "$oid": "634d6156c1a50566f8151bd7"
  },
  "original_name": "Yeovil",
  "official_name": "Yeovil",
  "county": "Somerset",
  "country": "GB",
  "latitude": 50.942061,
  "longitude": -2.633308
},{
  "_id": {
    "$oid": "634d6157c1a50566f8151bd8"
  },
  "original_name": "Sheerness",
  "official_name": "Sheerness",
  "county": "Kent",
  "country": "GB",
  "latitude": 51.44011,
  "longitude": 0.764158
},{
  "_id": {
    "$oid": "634d6157c1a50566f8151bd9"
  },
  "original_name": "Glenlochay",
  "official_name": "Killin",
  "county": "Stirling",
  "country": "GB",
  "latitude": 56.4833333,
  "longitude": -4.4333333
},{
  "_id": {
    "$oid": "634d6157c1a50566f8151bda"
  },
  "original_name": "Toronto",
  "official_name": "Toronto",
  "county": "Toronto",
  "country": "CA",
  "latitude": 43.653226,
  "longitude": -79.3831843
},{
  "_id": {
    "$oid": "634d6157c1a50566f8151bdb"
  },
  "original_name": "Gwernllwyn, Cardiganshire",
  "official_name": null,
  "county": "Ceredigion",
  "country": "GB",
  "latitude": 52.21914289999999,
  "longitude": -3.9321256
},{
  "_id": {
    "$oid": "634d6157c1a50566f8151bdc"
  },
  "original_name": "Lesmahagow",
  "official_name": "Lesmahagow",
  "county": "South Lanarkshire",
  "country": "GB",
  "latitude": 55.637634,
  "longitude": -3.88657
},{
  "_id": {
    "$oid": "634d6157c1a50566f8151bdd"
  },
  "original_name": "Kirkmichael, Perth and Kinross",
  "official_name": "Kirkmichael",
  "county": "Perth and Kinross",
  "country": "GB",
  "latitude": 56.7223489,
  "longitude": -3.5041293
},{
  "_id": {
    "$oid": "634d6158c1a50566f8151bde"
  },
  "original_name": "Banbeith, Leven",
  "official_name": "Leven",
  "county": "Fife",
  "country": "GB",
  "latitude": 56.2001575,
  "longitude": -3.0135887
},{
  "_id": {
    "$oid": "634d6158c1a50566f8151bdf"
  },
  "original_name": "Benholme",
  "official_name": "Benholm",
  "county": "Aberdeenshire",
  "country": "GB",
  "latitude": 56.814721,
  "longitude": -2.322092
},{
  "_id": {
    "$oid": "634d6158c1a50566f8151be0"
  },
  "original_name": "Marykirk",
  "official_name": "Marykirk",
  "county": "Aberdeenshire",
  "country": "GB",
  "latitude": 56.7826484,
  "longitude": -2.5138193
},{
  "_id": {
    "$oid": "634d6158c1a50566f8151be1"
  },
  "original_name": "Oldham",
  "official_name": "Oldham",
  "county": "Greater Manchester",
  "country": "GB",
  "latitude": 53.5409298,
  "longitude": -2.1113659
},{
  "_id": {
    "$oid": "634d6158c1a50566f8151be2"
  },
  "original_name": "Kingussie",
  "official_name": "Kingussie",
  "county": "Highland Council",
  "country": "GB",
  "latitude": 57.081409,
  "longitude": -4.054468
},{
  "_id": {
    "$oid": "634d6158c1a50566f8151be3"
  },
  "original_name": "Kenly Green",
  "official_name": "St Andrews",
  "county": "Fife",
  "country": "GB",
  "latitude": 56.31435140000001,
  "longitude": -2.6995831
},{
  "_id": {
    "$oid": "634d6159c1a50566f8151be4"
  },
  "original_name": "101, Walton St., Chelsea",
  "official_name": "London",
  "county": "Greater London",
  "country": "GB",
  "latitude": 51.4940815,
  "longitude": -0.1675369
},{
  "_id": {
    "$oid": "634d6159c1a50566f8151be5"
  },
  "original_name": "Radernie",
  "official_name": "Radernie",
  "county": "Fife",
  "country": "GB",
  "latitude": 56.27861000000001,
  "longitude": -2.863354
},{
  "_id": {
    "$oid": "634d6159c1a50566f8151be6"
  },
  "original_name": "Rathen, Aberdeenshire",
  "official_name": "Rathen",
  "county": "Aberdeenshire",
  "country": "GB",
  "latitude": 57.63311299999999,
  "longitude": -2.001945
},{
  "_id": {
    "$oid": "634d6159c1a50566f8151be7"
  },
  "original_name": "Libberton",
  "official_name": "Libberton",
  "county": "South Lanarkshire",
  "country": "GB",
  "latitude": 55.667734,
  "longitude": -3.60771
},{
  "_id": {
    "$oid": "634d6159c1a50566f8151be8"
  },
  "original_name": "Penrith",
  "official_name": "Penrith",
  "county": "Cumbria",
  "country": "GB",
  "latitude": 54.664097,
  "longitude": -2.752708
},{
  "_id": {
    "$oid": "634d6159c1a50566f8151be9"
  },
  "original_name": "Beath",
  "official_name": "Hill of Beath",
  "county": "Fife",
  "country": "GB",
  "latitude": 56.094478,
  "longitude": -3.364508
},{
  "_id": {
    "$oid": "634d615ac1a50566f8151bea"
  },
  "original_name": "St Columbas, Glasgow",
  "official_name": "Glasgow",
  "county": "Glasgow City",
  "country": "GB",
  "latitude": 55.8765428,
  "longitude": -4.2666237
},